{"changeset_id":"4A3C7AD5577044C2DF7BA33BD3B50AD6","time":"2011-12-22T00:00:56-06:00","status":{"code":200,"msg":"ok"},"stops":[{"stop_id":"150DALE","stop_name":"U.S. 150 and Dale","code":"MTD5437","points":[{"code":"MTD5437","stop_id":"150DALE:1","stop_lat":40.114512,"stop_lon":-88.180673,"stop_name":"U.S. 150 & Dale"},{"code":"MTD5437","stop_id":"150DALE:3","stop_lat":40.114503,"stop_lon":-88.180848,"stop_name":"U.S. 150 & Dale"}]},{"stop_id":"150DOD","stop_name":"U.S. 150 and Dodson Dr.","code":"MTD2634","points":[{"code":"MTD2634","stop_id":"150DOD:5","stop_lat":40.114158,"stop_lon":-88.173105,"stop_name":"U.S. 150 & Dodson"}]},{"stop_id":"150UNI","stop_name":"U.S. 150 and University","code":"MTD6741","points":[{"code":"MTD6741","stop_id":"150UNI:4","stop_lat":40.116542,"stop_lon":-88.183840,"stop_name":"U.S. 150 & University"},{"code":"MTD6741","stop_id":"150UNI:8","stop_lat":40.116033,"stop_lon":-88.184178,"stop_name":"U.S. 150 & University"}]},{"stop_id":"1NE14","stop_name":"First and Northeast Lot E-14","code":"MTD5562","points":[{"code":"MTD5562","stop_id":"1NE14:1","stop_lat":40.096972,"stop_lon":-88.238603,"stop_name":"First & E-14"}]},{"stop_id":"1SE14","stop_name":"First and Southeast Lot E-14","code":"MTD1000","points":[{"code":"MTD1000","stop_id":"1SE14:1","stop_lat":40.095825,"stop_lon":-88.238627,"stop_name":"First &  Lot E-14"}]},{"stop_id":"1STARY","stop_name":"First and Armory","code":"MTD6236","points":[{"code":"MTD6236","stop_id":"1STARY:4","stop_lat":40.105503,"stop_lon":-88.238705,"stop_name":"First & Armory"},{"code":"MTD6236","stop_id":"1STARY:5","stop_lat":40.105580,"stop_lon":-88.238598,"stop_name":"First & Armory"}]},{"stop_id":"1STCHSTR","stop_name":"First and Chester","code":"MTD6635","points":[{"code":"MTD6635","stop_id":"1STCHSTR:2","stop_lat":40.115470,"stop_lon":-88.238661,"stop_name":"First & Chester"},{"code":"MTD6635","stop_id":"1STCHSTR:4","stop_lat":40.115718,"stop_lon":-88.238768,"stop_name":"First & Chester"}]},{"stop_id":"1STDAN","stop_name":"First and Daniel","code":"MTD4361","points":[{"code":"MTD4361","stop_id":"1STDAN:1","stop_lat":40.107958,"stop_lon":-88.238540,"stop_name":"First & Daniel"},{"code":"MTD4361","stop_id":"1STDAN:6","stop_lat":40.107878,"stop_lon":-88.238347,"stop_name":"First & Daniel"}]},{"stop_id":"1STE14","stop_name":"First and Southeast Lot E-14","code":"MTD4247","points":[{"code":"MTD4247","stop_id":"1STE14:3","stop_lat":40.095627,"stop_lon":-88.238760,"stop_name":"First & Lot E-14"},{"code":"MTD4247","stop_id":"1STE14:8","stop_lat":40.095708,"stop_lon":-88.238953,"stop_name":"First & Lot E-14"}]},{"stop_id":"1STGRG","stop_name":"First and Gregory","code":"MTD5747","points":[{"code":"MTD5747","stop_id":"1STGRG:1","stop_lat":40.104150,"stop_lon":-88.238512,"stop_name":"First & Gregory"},{"code":"MTD5747","stop_id":"1STGRG:3","stop_lat":40.104057,"stop_lon":-88.238865,"stop_name":"First & Gregory"},{"code":"MTD5747","stop_id":"1STGRG:4","stop_lat":40.104208,"stop_lon":-88.238682,"stop_name":"First & Gregory"}]},{"stop_id":"1STGTY","stop_name":"First and Gerty","code":"MTD4241","points":[{"code":"MTD4241","stop_id":"1STGTY:2","stop_lat":40.087085,"stop_lon":-88.238135,"stop_name":"First & Gerty"},{"code":"MTD4241","stop_id":"1STGTY:4","stop_lat":40.087378,"stop_lon":-88.238263,"stop_name":"First & Gerty"},{"code":"MTD4241","stop_id":"1STGTY:7","stop_lat":40.086967,"stop_lon":-88.238265,"stop_name":"First & Gerty"}]},{"stop_id":"1STHLY","stop_name":"First and Healey","code":"MTD6026","points":[{"code":"MTD6026","stop_id":"1STHLY:4","stop_lat":40.111485,"stop_lon":-88.238778,"stop_name":"First & Healey"}]},{"stop_id":"1STHZLWD","stop_name":"First and Hazelwood","code":"MTD0342","points":[{"code":"MTD0342","stop_id":"1STHZLWD:2","stop_lat":40.090728,"stop_lon":-88.238153,"stop_name":"First & Hazelwood"},{"code":"MTD0342","stop_id":"1STHZLWD:4","stop_lat":40.090917,"stop_lon":-88.238290,"stop_name":"First & Hazelwood"}]},{"stop_id":"1STPDY","stop_name":"First and Peabody","code":"MTD3246","points":[{"code":"MTD3246","stop_id":"1STPDY:1","stop_lat":40.101467,"stop_lon":-88.238410,"stop_name":"First & Peabody"},{"code":"MTD3246","stop_id":"1STPDY:2","stop_lat":40.101358,"stop_lon":-88.238560,"stop_name":"First & Peabody"},{"code":"MTD3246","stop_id":"1STPDY:4","stop_lat":40.101527,"stop_lon":-88.238667,"stop_name":"First & Peabody"}]},{"stop_id":"1STSMR","stop_name":"First and St. Mary's Rd.","code":"MTD1333","points":[{"code":"MTD1333","stop_id":"1STSMR:1","stop_lat":40.094535,"stop_lon":-88.238312,"stop_name":"First & St. Mary's"},{"code":"MTD1333","stop_id":"1STSMR:3","stop_lat":40.094472,"stop_lon":-88.238642,"stop_name":"First & St. Mary's"},{"code":"MTD1333","stop_id":"1STSMR:4","stop_lat":40.094647,"stop_lon":-88.238638,"stop_name":"First & St. Mary's"},{"code":"MTD1333","stop_id":"1STSMR:5","stop_lat":40.094833,"stop_lon":-88.238503,"stop_name":"First & St. Mary's"},{"code":"MTD1333","stop_id":"1STSMR:8","stop_lat":40.094540,"stop_lon":-88.239055,"stop_name":"First & St. Mary's"}]},{"stop_id":"1STSPFLD","stop_name":"First and Springfield","code":"MTD5677","points":[{"code":"MTD5677","stop_id":"1STSPFLD:4","stop_lat":40.112723,"stop_lon":-88.238787,"stop_name":"First & Springfield"}]},{"stop_id":"1STSTDM","stop_name":"First and Stadium","code":"MTD1756","points":[{"code":"MTD1756","stop_id":"1STSTDM:2","stop_lat":40.102570,"stop_lon":-88.238592,"stop_name":"First & Stadium"},{"code":"MTD1756","stop_id":"1STSTDM:3","stop_lat":40.102675,"stop_lon":-88.238778,"stop_name":"First & Stadium"},{"code":"MTD1756","stop_id":"1STSTDM:4","stop_lat":40.102803,"stop_lon":-88.238675,"stop_name":"First & Stadium"},{"code":"MTD1756","stop_id":"1STSTDM:5","stop_lat":40.103395,"stop_lon":-88.238571,"stop_name":"1st & Stadium"}]},{"stop_id":"1STWDSR","stop_name":"First and Windsor","code":"MTD5610","points":[{"code":"MTD5610","stop_id":"1STWDSR:3","stop_lat":40.083280,"stop_lon":-88.238668,"stop_name":"First & Windsor"},{"code":"MTD5610","stop_id":"1STWDSR:4","stop_lat":40.083533,"stop_lon":-88.238388,"stop_name":"First & Windsor"}]},{"stop_id":"2NDCHCH","stop_name":"Second and Church","code":"MTD6161","points":[{"code":"MTD6161","stop_id":"2NDCHCH:2","stop_lat":40.118243,"stop_lon":-88.237045,"stop_name":"Second & Church"},{"code":"MTD6161","stop_id":"2NDCHCH:4","stop_lat":40.118453,"stop_lon":-88.237138,"stop_name":"Second & Church"}]},{"stop_id":"2NDHILL","stop_name":"Second and Hill","code":"MTD1777","points":[{"code":"MTD1777","stop_id":"2NDHILL:2","stop_lat":40.119233,"stop_lon":-88.237062,"stop_name":"Second & Hill"},{"code":"MTD1777","stop_id":"2NDHILL:4","stop_lat":40.119368,"stop_lon":-88.237142,"stop_name":"Second & Hill"}]},{"stop_id":"2NDPK","stop_name":"Second and Park","code":"MTD2735","points":[{"code":"MTD2735","stop_id":"2NDPK:2","stop_lat":40.117212,"stop_lon":-88.237007,"stop_name":"Second & Park"},{"code":"MTD2735","stop_id":"2NDPK:4","stop_lat":40.117463,"stop_lon":-88.237132,"stop_name":"Second & Park"}]},{"stop_id":"2NDUNI","stop_name":"Second and University","code":"MTD5743","points":[{"code":"MTD5743","stop_id":"2NDUNI:4","stop_lat":40.116485,"stop_lon":-88.237148,"stop_name":"Second & University"},{"code":"MTD5743","stop_id":"2NDUNI:5","stop_lat":40.116600,"stop_lon":-88.237045,"stop_name":"Second & University"}]},{"stop_id":"3RDDAN","stop_name":"Third and Daniel","code":"MTD4505","points":[{"code":"MTD4505","stop_id":"3RDDAN:3","stop_lat":40.107898,"stop_lon":-88.235562,"stop_name":"Third & Daniel"},{"code":"MTD4505","stop_id":"3RDDAN:8","stop_lat":40.107990,"stop_lon":-88.235558,"stop_name":"Third & Daniel"}]},{"stop_id":"4THARY","stop_name":"Fourth and Armory","code":"MTD5576","points":[{"code":"MTD5576","stop_id":"4THARY:1","stop_lat":40.105450,"stop_lon":-88.233231,"stop_name":"Fourth & Armory"},{"code":"MTD5576","stop_id":"4THARY:2","stop_lat":40.105292,"stop_lon":-88.233395,"stop_name":"Fourth & Armory"},{"code":"MTD5576","stop_id":"4THARY:6","stop_lat":40.105380,"stop_lon":-88.232490,"stop_name":"4th & Armory"}]},{"stop_id":"4THBRAD","stop_name":"Fourth and Bradley","code":"MTD2872","points":[{"code":"MTD2872","stop_id":"4THBRAD:1","stop_lat":40.127297,"stop_lon":-88.233700,"stop_name":"Fourth & Bradley"}]},{"stop_id":"4THCHAL","stop_name":"Fourth and Chalmers","code":"MTD4752","points":[{"code":"MTD4752","stop_id":"4THCHAL:1","stop_lat":40.106838,"stop_lon":-88.233322,"stop_name":"4th & Chalmers"},{"code":"MTD4752","stop_id":"4THCHAL:4","stop_lat":40.106745,"stop_lon":-88.233510,"stop_name":"Fourth & Chalmers"}]},{"stop_id":"4THGRG","stop_name":"Fourth and Gregory","code":"MTD1411","points":[{"code":"MTD1411","stop_id":"4THGRG:1","stop_lat":40.104173,"stop_lon":-88.233212,"stop_name":"Fourth & Gregory"},{"code":"MTD1411","stop_id":"4THGRG:2","stop_lat":40.104095,"stop_lon":-88.233226,"stop_name":"Fourth & Gregory"},{"code":"MTD1411","stop_id":"4THGRG:3","stop_lat":40.104095,"stop_lon":-88.233682,"stop_name":"Fourth & Gregory"},{"code":"MTD1411","stop_id":"4THGRG:4","stop_lat":40.104193,"stop_lon":-88.233482,"stop_name":"Fourth & Gregory"},{"code":"MTD1411","stop_id":"4THGRG:7","stop_lat":40.103817,"stop_lon":-88.233500,"stop_name":"Fourth & Gregory"}]},{"stop_id":"4THKBY","stop_name":"Fourth and Kirby","code":"MTD6675","points":[{"code":"MTD6675","stop_id":"4THKBY:3","stop_lat":40.098002,"stop_lon":-88.233572,"stop_name":"Fourth & Kirby"},{"code":"MTD6675","stop_id":"4THKBY:4","stop_lat":40.098844,"stop_lon":-88.233472,"stop_name":"Fourth & Kirby"},{"code":"MTD6675","stop_id":"4THKBY:5","stop_lat":40.098817,"stop_lon":-88.233260,"stop_name":"Fourth & Kirby"}]},{"stop_id":"4THPA","stop_name":"Fourth and Pennsylvania","code":"MTD6735","points":[{"code":"MTD6735","stop_id":"4THPA:2","stop_lat":40.100414,"stop_lon":-88.233292,"stop_name":"Fourth & Pennsylvania"},{"code":"MTD6735","stop_id":"4THPA:4","stop_lat":40.100552,"stop_lon":-88.233452,"stop_name":"Fourth & Pennsylvania"}]},{"stop_id":"4THPDY","stop_name":"Fourth and Peabody","code":"MTD3014","points":[{"code":"MTD3014","stop_id":"4THPDY:1","stop_lat":40.101505,"stop_lon":-88.233258,"stop_name":"Fourth & Peabody"},{"code":"MTD3014","stop_id":"4THPDY:2","stop_lat":40.101330,"stop_lon":-88.233307,"stop_name":"Fourth & Peabody"},{"code":"MTD3014","stop_id":"4THPDY:3","stop_lat":40.101425,"stop_lon":-88.233553,"stop_name":"Fourth & Peabody"},{"code":"MTD3014","stop_id":"4THPDY:4","stop_lat":40.101603,"stop_lon":-88.233468,"stop_name":"Fourth & Peabody"},{"code":"MTD3014","stop_id":"4THPDY:5","stop_lat":40.101847,"stop_lon":-88.233323,"stop_name":"Fourth & Peabody"},{"code":"MTD3014","stop_id":"4THPDY:7","stop_lat":40.101137,"stop_lon":-88.233435,"stop_name":"Fourth & Peabody"}]},{"stop_id":"4THSMR","stop_name":"Fourth and St. Mary's","code":"MTD7424","points":[{"code":"MTD7424","stop_id":"4THSMR:4","stop_lat":40.094688,"stop_lon":-88.233327,"stop_name":"Fourth & St. Mary's"},{"code":"MTD7424","stop_id":"4THSMR:5","stop_lat":40.094883,"stop_lon":-88.233193,"stop_name":"Fourth & St. Mary's"}]},{"stop_id":"5THBRAD","stop_name":"Fifth and Bradley","code":"MTD5452","points":[{"code":"MTD5452","stop_id":"5THBRAD:2","stop_lat":40.127175,"stop_lon":-88.232218,"stop_name":"Fifth & Bradley"},{"code":"MTD5452","stop_id":"5THBRAD:3","stop_lat":40.127232,"stop_lon":-88.232430,"stop_name":"Fifth & Bradley"},{"code":"MTD5452","stop_id":"5THBRAD:7","stop_lat":40.126846,"stop_lon":-88.232262,"stop_name":"Fifth & Bradley"}]},{"stop_id":"5THBRD","stop_name":"Fifth and Beardsley","code":"MTD2054","points":[{"code":"MTD2054","stop_id":"5THBRD:2","stop_lat":40.126168,"stop_lon":-88.232085,"stop_name":"Fifth & Beardsley"},{"code":"MTD2054","stop_id":"5THBRD:4","stop_lat":40.126377,"stop_lon":-88.232177,"stop_name":"Fifth & Beardsley"}]},{"stop_id":"5THCHAL","stop_name":"Fifth and Chalmers","code":"MTD7555","points":[{"code":"MTD7555","stop_id":"5THCHAL:1","stop_lat":40.106857,"stop_lon":-88.231857,"stop_name":"5th & Chalmers"}]},{"stop_id":"5THCLMBA","stop_name":"Fifth and Columbia","code":"MTD2036","points":[{"code":"MTD2036","stop_id":"5THCLMBA:2","stop_lat":40.121088,"stop_lon":-88.232068,"stop_name":"Fifth & Columbia"},{"code":"MTD2036","stop_id":"5THCLMBA:4","stop_lat":40.121308,"stop_lon":-88.232153,"stop_name":"Fifth & Columbia"}]},{"stop_id":"5THERKA","stop_name":"Fifth and Eureka","code":"MTD1232","points":[{"code":"MTD1232","stop_id":"5THERKA:2","stop_lat":40.125082,"stop_lon":-88.232077,"stop_name":"Fifth & Eureka"},{"code":"MTD1232","stop_id":"5THERKA:4","stop_lat":40.125265,"stop_lon":-88.232165,"stop_name":"Fifth & Eureka"}]},{"stop_id":"5THGRV","stop_name":"Fifth and Grove","code":"MTD2337","points":[{"code":"MTD2337","stop_id":"5THGRV:2","stop_lat":40.123022,"stop_lon":-88.232075,"stop_name":"Fifth & Grove"},{"code":"MTD2337","stop_id":"5THGRV:4","stop_lat":40.123243,"stop_lon":-88.232132,"stop_name":"Fifth & Grove"}]},{"stop_id":"5THTRMNT","stop_name":"Fifth and Tremont","code":"MTD4102","points":[{"code":"MTD4102","stop_id":"5THTRMNT:2","stop_lat":40.124132,"stop_lon":-88.232078,"stop_name":"Fifth & Tremont"},{"code":"MTD4102","stop_id":"5THTRMNT:4","stop_lat":40.124247,"stop_lon":-88.232150,"stop_name":"Fifth & Tremont"}]},{"stop_id":"5THVIN","stop_name":"Fifth and Vine","code":"MTD1255","points":[{"code":"MTD1255","stop_id":"5THVIN:2","stop_lat":40.122072,"stop_lon":-88.232072,"stop_name":"Fifth & Vine"},{"code":"MTD1255","stop_id":"5THVIN:4","stop_lat":40.122240,"stop_lon":-88.232147,"stop_name":"Fifth & Vine"}]},{"stop_id":"5THWASH","stop_name":"Fifth and Washington","code":"MTD5571","points":[{"code":"MTD5571","stop_id":"5THWASH:3","stop_lat":40.120200,"stop_lon":-88.232265,"stop_name":"5th & Washington"},{"code":"MTD5571","stop_id":"5THWASH:4","stop_lat":40.120345,"stop_lon":-88.232147,"stop_name":"Fifth & Washington"}]},{"stop_id":"6THARY","stop_name":"Sixth and Armory","code":"MTD2214","points":[{"code":"MTD2214","stop_id":"6THARY:2","stop_lat":40.105252,"stop_lon":-88.230237,"stop_name":"Sixth & Armory"},{"code":"MTD2214","stop_id":"6THARY:3","stop_lat":40.105385,"stop_lon":-88.230632,"stop_name":"Sixth & Armory"},{"code":"MTD2214","stop_id":"6THARY:4","stop_lat":40.105608,"stop_lon":-88.230338,"stop_name":"Sixth & Armory"}]},{"stop_id":"6THBRAD","stop_name":"Sixth and Bradley","code":"MTD5422","points":[{"code":"MTD5422","stop_id":"6THBRAD:1","stop_lat":40.127377,"stop_lon":-88.230350,"stop_name":"Sixth & Bradley"},{"code":"MTD5422","stop_id":"6THBRAD:3","stop_lat":40.127252,"stop_lon":-88.230602,"stop_name":"Sixth & Bradley"}]},{"stop_id":"6THCHAL","stop_name":"Sixth and Chalmers","code":"MTD1546","points":[{"code":"MTD1546","stop_id":"6THCHAL:1","stop_lat":40.106852,"stop_lon":-88.230153,"stop_name":"Sixth & Chalmers"}]},{"stop_id":"6THGRG","stop_name":"Sixth and Gregory","code":"MTD1523","points":[{"code":"MTD1523","stop_id":"6THGRG:2","stop_lat":40.104025,"stop_lon":-88.230225,"stop_name":"Sixth & Gregory"},{"code":"MTD1523","stop_id":"6THGRG:3","stop_lat":40.104115,"stop_lon":-88.230460,"stop_name":"Sixth & Gregory"},{"code":"MTD1523","stop_id":"6THGRG:4","stop_lat":40.104283,"stop_lon":-88.230312,"stop_name":"Sixth & Gregory"},{"code":"MTD1523","stop_id":"6THGRG:5","stop_lat":40.104460,"stop_lon":-88.230210,"stop_name":"Sixth & Gregory"}]},{"stop_id":"6THPDY","stop_name":"Sixth and Peabody","code":"MTD0153","points":[{"code":"MTD0153","stop_id":"6THPDY:2","stop_lat":40.101385,"stop_lon":-88.230142,"stop_name":"Sixth & Peabody"},{"code":"MTD0153","stop_id":"6THPDY:3","stop_lat":40.101457,"stop_lon":-88.230400,"stop_name":"Sixth & Peabody"},{"code":"MTD0153","stop_id":"6THPDY:4","stop_lat":40.101652,"stop_lon":-88.230297,"stop_name":"Sixth & Peabody"},{"code":"MTD0153","stop_id":"6THPDY:5","stop_lat":40.101665,"stop_lon":-88.230132,"stop_name":"Sixth & Peabody"}]},{"stop_id":"6THTFT","stop_name":"Sixth and Lorado Taft","code":"MTD3344","points":[{"code":"MTD3344","stop_id":"6THTFT:2","stop_lat":40.102843,"stop_lon":-88.230178,"stop_name":"Sixth & Lorado Taft"}]},{"stop_id":"ADRSNBKWD","stop_name":"Anderson and Burkwood","code":"MTD7460","points":[{"code":"MTD7460","stop_id":"ADRSNBKWD:2","stop_lat":40.096320,"stop_lon":-88.199140,"stop_name":"Anderson & Burkwood"},{"code":"MTD7460","stop_id":"ADRSNBKWD:4","stop_lat":40.096670,"stop_lon":-88.199467,"stop_name":"Anderson & Burkwood"}]},{"stop_id":"ADRSNBRTN","stop_name":"Anderson and Brighton","code":"MTD2556","points":[{"code":"MTD2556","stop_id":"ADRSNBRTN:2","stop_lat":40.093029,"stop_lon":-88.199059,"stop_name":"Anderson & Brighton"},{"code":"MTD2556","stop_id":"ADRSNBRTN:4","stop_lat":40.093259,"stop_lon":-88.199052,"stop_name":"Anderson & Brighton"}]},{"stop_id":"ADRSNCO","stop_name":"Anderson and Colorado","code":"MTD5667","points":[{"code":"MTD5667","stop_id":"ADRSNCO:1","stop_lat":40.094750,"stop_lon":-88.198475,"stop_name":"Anderson & Colorado"},{"code":"MTD5667","stop_id":"ADRSNCO:2","stop_lat":40.094605,"stop_lon":-88.198613,"stop_name":"Anderson & Colorado"},{"code":"MTD5667","stop_id":"ADRSNCO:4","stop_lat":40.094835,"stop_lon":-88.198703,"stop_name":"Anderson & Colorado"}]},{"stop_id":"ADRSNELIOT","stop_name":"Anderson and Eliot","code":"MTD0211","points":[{"code":"MTD0211","stop_id":"ADRSNELIOT:2","stop_lat":40.089532,"stop_lon":-88.199497,"stop_name":"Anderson & Eliot"},{"code":"MTD0211","stop_id":"ADRSNELIOT:4","stop_lat":40.089717,"stop_lon":-88.199575,"stop_name":"Anderson & Eliot"}]},{"stop_id":"ADRSNEVRGN","stop_name":"Anderson and Evergreen Circle","code":"MTD4232","points":[{"code":"MTD4232","stop_id":"ADRSNEVRGN:2","stop_lat":40.095508,"stop_lon":-88.198700,"stop_name":"Anderson & Evergreen"},{"code":"MTD4232","stop_id":"ADRSNEVRGN:4","stop_lat":40.095753,"stop_lon":-88.198893,"stop_name":"Anderson & Evergreen"}]},{"stop_id":"ADRSNFRLN","stop_name":"Anderson and Fairlawn","code":"MTD2224","points":[{"code":"MTD2224","stop_id":"ADRSNFRLN:3","stop_lat":40.103283,"stop_lon":-88.200323,"stop_name":"Anderson & Fairlawn"},{"code":"MTD2224","stop_id":"ADRSNFRLN:8","stop_lat":40.103330,"stop_lon":-88.200498,"stop_name":"Anderson & Fairlawn"}]},{"stop_id":"ADRSNHRDG","stop_name":"Anderson and Harding","code":"MTD3324","points":[{"code":"MTD3324","stop_id":"ADRSNHRDG:2","stop_lat":40.093762,"stop_lon":-88.198672,"stop_name":"Anderson & Harding"},{"code":"MTD3324","stop_id":"ADRSNHRDG:4","stop_lat":40.093720,"stop_lon":-88.198798,"stop_name":"Anderson & Harding"}]},{"stop_id":"ADRSNHTHN","stop_name":"Anderson and Hawthorne","code":"MTD0564","points":[{"code":"MTD0564","stop_id":"ADRSNHTHN:2","stop_lat":40.102248,"stop_lon":-88.200158,"stop_name":"Anderson & Hawthorne"}]},{"stop_id":"ADRSNMFRD","stop_name":"Anderson and Mumford","code":"MTD5145","points":[{"code":"MTD5145","stop_id":"ADRSNMFRD:2","stop_lat":40.090580,"stop_lon":-88.199515,"stop_name":"Anderson & Mumford"},{"code":"MTD5145","stop_id":"ADRSNMFRD:4","stop_lat":40.090797,"stop_lon":-88.199597,"stop_name":"Anderson & Mumford"}]},{"stop_id":"ADRSNMI","stop_name":"Anderson and Michigan","code":"MTD2475","points":[{"code":"MTD2475","stop_id":"ADRSNMI:2","stop_lat":40.101497,"stop_lon":-88.200130,"stop_name":"Anderson & Michigan"},{"code":"MTD2475","stop_id":"ADRSNMI:4","stop_lat":40.101917,"stop_lon":-88.200200,"stop_name":"Anderson & Michigan"}]},{"stop_id":"ADRSNSLVR","stop_name":"Anderson and Silver","code":"MTD1132","points":[{"code":"MTD1132","stop_id":"ADRSNSLVR:2","stop_lat":40.091383,"stop_lon":-88.199510,"stop_name":"Anderson & Silver"},{"code":"MTD1132","stop_id":"ADRSNSLVR:4","stop_lat":40.091487,"stop_lon":-88.199627,"stop_name":"Anderson & Silver"}]},{"stop_id":"ADRSNSNYC","stop_name":"Anderson and Sunnycrest","code":"MTD5463","points":[{"code":"MTD5463","stop_id":"ADRSNSNYC:2","stop_lat":40.097252,"stop_lon":-88.199692,"stop_name":"Anderson & Sunnycrest"},{"code":"MTD5463","stop_id":"ADRSNSNYC:4","stop_lat":40.097562,"stop_lon":-88.200028,"stop_name":"Anderson & Sunnycrest"}]},{"stop_id":"ALDI150","stop_name":"Aldi at Rt. 150","code":"MTD6445","points":[{"code":"MTD6445","stop_id":"ALDI150:1","stop_lat":40.113285,"stop_lon":-88.165451,"stop_name":"Aldi"},{"code":"MTD6445","stop_id":"ALDI150:2","stop_lat":40.113415,"stop_lon":-88.165100,"stop_name":"Aldi"}]},{"stop_id":"ALPBRAD","stop_name":"Alpine and Bradley","code":"MTD0795","points":[{"code":"MTD0795","stop_id":"ALPBRAD:1","stop_lat":40.127700,"stop_lon":-88.298342,"stop_name":"Alpine & Bradley"},{"code":"MTD0795","stop_id":"ALPBRAD:4","stop_lat":40.127792,"stop_lon":-88.298508,"stop_name":"Alpine & Bradley"},{"code":"MTD0795","stop_id":"ALPBRAD:5","stop_lat":40.127890,"stop_lon":-88.298430,"stop_name":"Alpine & Bradley"}]},{"stop_id":"ALPTMBLN","stop_name":"Alpine and Timberline","code":"MTD3624","points":[{"code":"MTD3624","stop_id":"ALPTMBLN:2","stop_lat":40.128185,"stop_lon":-88.298453,"stop_name":"Alpine & Timberline"},{"code":"MTD3624","stop_id":"ALPTMBLN:4","stop_lat":40.128358,"stop_lon":-88.298525,"stop_name":"Alpine & Timberline"}]},{"stop_id":"AMBMYRA","stop_name":"Amber and Myra Ridge","code":"MTD4624","points":[{"code":"MTD4624","stop_id":"AMBMYRA:2","stop_lat":40.087319,"stop_lon":-88.185320,"stop_name":"Amber & Myra Ridge"},{"code":"MTD4624","stop_id":"AMBMYRA:3","stop_lat":40.087372,"stop_lon":-88.185483,"stop_name":"Amber & Myra Ridge"},{"code":"MTD4624","stop_id":"AMBMYRA:4","stop_lat":40.087440,"stop_lon":-88.185468,"stop_name":"Amber & Myra Ridge"}]},{"stop_id":"AMBPHILO","stop_name":"Amber and Philo","code":"MTD1511","points":[{"code":"MTD1511","stop_id":"AMBPHILO:1","stop_lat":40.087414,"stop_lon":-88.190431,"stop_name":"Amber & Philo"},{"code":"MTD1511","stop_id":"AMBPHILO:2","stop_lat":40.087013,"stop_lon":-88.190552,"stop_name":"Amber & Philo"},{"code":"MTD1511","stop_id":"AMBPHILO:6","stop_lat":40.087342,"stop_lon":-88.189672,"stop_name":"Amber & Philo"}]},{"stop_id":"AMBUC","stop_name":"University and Ambucs Park Entrance","code":"MTD4322","points":[{"code":"MTD4322","stop_id":"AMBUC:1","stop_lat":40.115722,"stop_lon":-88.192453,"stop_name":"Ambucs Park"},{"code":"MTD4322","stop_id":"AMBUC:2","stop_lat":40.115905,"stop_lon":-88.192215,"stop_name":"Ambucs Park"}]},{"stop_id":"ANTCMBL","stop_name":"Anthony and Campbell","code":"MTD5255","points":[{"code":"MTD5255","stop_id":"ANTCMBL:4","stop_lat":40.138067,"stop_lon":-88.269917,"stop_name":"Anthony & Campbell"},{"code":"MTD5255","stop_id":"ANTCMBL:5","stop_lat":40.138247,"stop_lon":-88.269680,"stop_name":"Anthony & Campbell"}]},{"stop_id":"ANTDALE","stop_name":"Anthony and Dale","code":"MTD3135","points":[{"code":"MTD3135","stop_id":"ANTDALE:1","stop_lat":40.139717,"stop_lon":-88.274336,"stop_name":"Anthony & Dale"},{"code":"MTD3135","stop_id":"ANTDALE:3","stop_lat":40.139787,"stop_lon":-88.274603,"stop_name":"Anthony & Dale"}]},{"stop_id":"ANTDOBB","stop_name":"Anthony and Dobbins","code":"MTD4730","points":[{"code":"MTD4730","stop_id":"ANTDOBB:2","stop_lat":40.141552,"stop_lon":-88.276736,"stop_name":"Anthony & Dobbins"},{"code":"MTD4730","stop_id":"ANTDOBB:4","stop_lat":40.141712,"stop_lon":-88.276975,"stop_name":"Anthony & Dobbins"}]},{"stop_id":"ANTGOODWILL","stop_name":"Anthony Dr. at Goodwill","code":"MTD7542","points":[{"code":"MTD7542","stop_id":"ANTGOODWILL:1","stop_lat":40.137117,"stop_lon":-88.259206,"stop_name":"Anthony Dr. at Goodwill"},{"code":"MTD7542","stop_id":"ANTGOODWILL:2","stop_lat":40.137096,"stop_lon":-88.259070,"stop_name":"Anthony Dr. at Goodwill"}]},{"stop_id":"ANTHYGW","stop_name":"Anthony at Goodwill","code":"MTD2716","points":[{"code":"MTD2716","stop_id":"ANTHYGW:1","stop_lat":40.137248,"stop_lon":-88.259208,"stop_name":"Anthony at Goodwill"},{"code":"MTD2716","stop_id":"ANTHYGW:2","stop_lat":40.137231,"stop_lon":-88.259062,"stop_name":"Anthony at Goodwill"}]},{"stop_id":"ANTHYRK","stop_name":"Anthony at Rural King","code":"MTD0344","points":[{"code":"MTD0344","stop_id":"ANTHYRK:2","stop_lat":40.136215,"stop_lon":-88.263430,"stop_name":"Anthony at Rural King"},{"code":"MTD0344","stop_id":"ANTHYRK:3","stop_lat":40.136192,"stop_lon":-88.263765,"stop_name":"Anthony at Rural King"}]},{"stop_id":"ANTHYVP","stop_name":"Anthony at Value Place","code":"MTD1971","points":[{"code":"MTD1971","stop_id":"ANTHYVP:2","stop_lat":40.136923,"stop_lon":-88.266502,"stop_name":"Anthony at Value Place"}]},{"stop_id":"ANTKANK","stop_name":"Anthony and Kankakee","code":"MTD6056","points":[{"code":"MTD6056","stop_id":"ANTKANK:1","stop_lat":40.136608,"stop_lon":-88.265307,"stop_name":"Anthony & Kankakee"},{"code":"MTD6056","stop_id":"ANTKANK:3","stop_lat":40.136575,"stop_lon":-88.265402,"stop_name":"Anthony & Kankakee"}]},{"stop_id":"ANTMATS","stop_name":"Anthony and Mattis","code":"MTD5742","points":[{"code":"MTD5742","stop_id":"ANTMATS:1","stop_lat":40.143323,"stop_lon":-88.277135,"stop_name":"Anthony & Mattis"},{"code":"MTD5742","stop_id":"ANTMATS:2","stop_lat":40.143087,"stop_lon":-88.277270,"stop_name":"Anthony & Mattis"},{"code":"MTD5742","stop_id":"ANTMATS:4","stop_lat":40.143380,"stop_lon":-88.277460,"stop_name":"Anthony & Mattis"},{"code":"MTD5742","stop_id":"ANTMATS:8","stop_lat":40.143085,"stop_lon":-88.276975,"stop_name":"Anthony & Mattis"}]},{"stop_id":"ANTVP","stop_name":"Anthony Dr. at Value Place","code":"MTD6526","points":[{"code":"MTD6526","stop_id":"ANTVP:1","stop_lat":40.137147,"stop_lon":-88.267320,"stop_name":"Anthony Dr. at Value Place"}]},{"stop_id":"ANTWTRS","stop_name":"Anthony and Walters","code":"MTD1256","points":[{"code":"MTD1256","stop_id":"ANTWTRS:3","stop_lat":40.139182,"stop_lon":-88.273293,"stop_name":"Anthony & Walters"},{"code":"MTD1256","stop_id":"ANTWTRS:4","stop_lat":40.139289,"stop_lon":-88.273236,"stop_name":"Anthony & Walters"},{"code":"MTD1256","stop_id":"ANTWTRS:5","stop_lat":40.139442,"stop_lon":-88.273053,"stop_name":"Anthony & Walters"}]},{"stop_id":"APTHICRS","stop_name":"Airport Rd. and Highcross","code":"MTD2364","points":[{"code":"MTD2364","stop_id":"APTHICRS:2","stop_lat":40.142123,"stop_lon":-88.162845,"stop_name":"Airport & Highcross"},{"code":"MTD2364","stop_id":"APTHICRS:3","stop_lat":40.142168,"stop_lon":-88.163036,"stop_name":"Airport & Highcross"}]},{"stop_id":"ARC","stop_name":"Activities and Recreation","code":"MTD5762","points":[{"code":"MTD5762","stop_id":"ARC:1","stop_lat":40.101402,"stop_lon":-88.236023,"stop_name":"ARC"},{"code":"MTD5762","stop_id":"ARC:2","stop_lat":40.101486,"stop_lon":-88.236055,"stop_name":"ARC"}]},{"stop_id":"ARYWRT","stop_name":"Armory and Wright","code":"MTD4145","points":[{"code":"MTD4145","stop_id":"ARYWRT:3","stop_lat":40.105393,"stop_lon":-88.229013,"stop_name":"Armory & Wright"}]},{"stop_id":"ASHTON","stop_name":"First at Ashton Woods","code":"MTD4235","points":[{"code":"MTD4235","stop_id":"ASHTON:1","stop_lat":40.085250,"stop_lon":-88.238250,"stop_name":"Ashton Woods"},{"code":"MTD4235","stop_id":"ASHTON:2","stop_lat":40.085225,"stop_lon":-88.238102,"stop_name":"Ashton Woods"}]},{"stop_id":"ATRIUM","stop_name":"Atrium Apts","code":"MTD2562","points":[{"code":"MTD2562","stop_id":"ATRIUM:2","stop_lat":40.124685,"stop_lon":-88.219415,"stop_name":"Atrium Apts"}]},{"stop_id":"BAYBRDWLK","stop_name":"Baytown and Boardwalk","code":"MTD3237","points":[{"code":"MTD3237","stop_id":"BAYBRDWLK:2","stop_lat":40.140552,"stop_lon":-88.260885,"stop_name":"Baytown & Boardwalk"},{"code":"MTD3237","stop_id":"BAYBRDWLK:4","stop_lat":40.140895,"stop_lon":-88.261073,"stop_name":"Baytown & Boardwalk"}]},{"stop_id":"BCHRMN","stop_name":"Beech and Romine","code":"MTD1422","points":[{"code":"MTD1422","stop_id":"BCHRMN:2","stop_lat":40.122142,"stop_lon":-88.227135,"stop_name":"Beech & Romine"},{"code":"MTD1422","stop_id":"BCHRMN:3","stop_lat":40.122140,"stop_lon":-88.227292,"stop_name":"Beech & Romine"},{"code":"MTD1422","stop_id":"BCHRMN:4","stop_lat":40.122252,"stop_lon":-88.227192,"stop_name":"Beech & Romine"}]},{"stop_id":"BDMRBLMY","stop_name":"Broadmoor and Bellamy","code":"MTD3641","points":[{"code":"MTD3641","stop_id":"BDMRBLMY:1","stop_lat":40.092772,"stop_lon":-88.262198,"stop_name":"Broadmoor & Bellamy"},{"code":"MTD3641","stop_id":"BDMRBLMY:3","stop_lat":40.092673,"stop_lon":-88.262390,"stop_name":"Broadmoor & Bellamy"}]},{"stop_id":"BDMRCRSNT","stop_name":"Broadmoor and Crescent","code":"MTD7365","points":[{"code":"MTD7365","stop_id":"BDMRCRSNT:3","stop_lat":40.094657,"stop_lon":-88.283432,"stop_name":"Broadmoor & Crescent"},{"code":"MTD7365","stop_id":"BDMRCRSNT:4","stop_lat":40.094758,"stop_lon":-88.283318,"stop_name":"Broadmoor & Crescent"}]},{"stop_id":"BDMRDVD","stop_name":"Broadmoor and David","code":"MTD2114","points":[{"code":"MTD2114","stop_id":"BDMRDVD:3","stop_lat":40.092670,"stop_lon":-88.258865,"stop_name":"Broadmoor & David"}]},{"stop_id":"BDMRGLN","stop_name":"Broadmoor and Galen","code":"MTD0352","points":[{"code":"MTD0352","stop_id":"BDMRGLN:2","stop_lat":40.092610,"stop_lon":-88.263425,"stop_name":"Broadmoor & Galen"},{"code":"MTD0352","stop_id":"BDMRGLN:3","stop_lat":40.092688,"stop_lon":-88.263558,"stop_name":"Broadmoor & Galen"},{"code":"MTD0352","stop_id":"BDMRGLN:7","stop_lat":40.092447,"stop_lon":-88.263502,"stop_name":"Broadmoor & Galen"}]},{"stop_id":"BDMRGTWN","stop_name":"Broadmoor and Georgetown","code":"MTD4775","points":[{"code":"MTD4775","stop_id":"BDMRGTWN:1","stop_lat":40.093737,"stop_lon":-88.270980,"stop_name":"Broadmoor & Georgetown"}]},{"stop_id":"BDMRLCNPL","stop_name":"Broadmoor and Lincoln Pl.","code":"MTD0323","points":[{"code":"MTD0323","stop_id":"BDMRLCNPL:2","stop_lat":40.093922,"stop_lon":-88.264082,"stop_name":"Broadmoor & Lincoln Pl."},{"code":"MTD0323","stop_id":"BDMRLCNPL:3","stop_lat":40.093937,"stop_lon":-88.264222,"stop_name":"Broadmoor & Lincoln Pl."}]},{"stop_id":"BDMRLNWD","stop_name":"Broadmoor and Lynwood","code":"MTD2606","points":[{"code":"MTD2606","stop_id":"BDMRLNWD:1","stop_lat":40.092738,"stop_lon":-88.259768,"stop_name":"Broadmoor & Lynwood"},{"code":"MTD2606","stop_id":"BDMRLNWD:3","stop_lat":40.092672,"stop_lon":-88.260053,"stop_name":"Broadmoor & Lynwood"}]},{"stop_id":"BDMRLSDED","stop_name":"Broadmoor and Lakeside Dr.","code":"MTD7216","points":[{"code":"MTD7216","stop_id":"BDMRLSDED:1","stop_lat":40.093748,"stop_lon":-88.272140,"stop_name":"Broadmoor & Lakeside"},{"code":"MTD7216","stop_id":"BDMRLSDED:3","stop_lat":40.093666,"stop_lon":-88.272399,"stop_name":"Broadmoor & Lakeside"}]},{"stop_id":"BDMRMCD","stop_name":"Broadmoor and McDonald","code":"MTD6455","points":[{"code":"MTD6455","stop_id":"BDMRMCD:1","stop_lat":40.092749,"stop_lon":-88.260931,"stop_name":"Broadmoor & McDonald"},{"code":"MTD6455","stop_id":"BDMRMCD:3","stop_lat":40.092680,"stop_lon":-88.261183,"stop_name":"Broadmoor & McDonald"}]},{"stop_id":"BDMRRBT","stop_name":"Broadmoor and Robert","code":"MTD1742","points":[{"code":"MTD1742","stop_id":"BDMRRBT:1","stop_lat":40.094122,"stop_lon":-88.266338,"stop_name":"Broadmoor & Robert"},{"code":"MTD1742","stop_id":"BDMRRBT:4","stop_lat":40.094170,"stop_lon":-88.266485,"stop_name":"Broadmoor & Robert"}]},{"stop_id":"BDWYBLY","stop_name":"Broadway and Bailey","code":"MTD1337","points":[{"code":"MTD1337","stop_id":"BDWYBLY:2","stop_lat":40.124702,"stop_lon":-88.207645,"stop_name":"Broadway & Bailey"},{"code":"MTD1337","stop_id":"BDWYBLY:4","stop_lat":40.124813,"stop_lon":-88.207710,"stop_name":"Broadway & Bailey"}]},{"stop_id":"BDWYCCR","stop_name":"Broadway and Country Club","code":"MTD6222","points":[{"code":"MTD6222","stop_id":"BDWYCCR:2","stop_lat":40.127357,"stop_lon":-88.207665,"stop_name":"Broadway & Country Club"},{"code":"MTD6222","stop_id":"BDWYCCR:7","stop_lat":40.127167,"stop_lon":-88.207782,"stop_name":"Broadway & Country Club"}]},{"stop_id":"BDWYCHPN","stop_name":"Broadway and Chapin","code":"MTD5735","points":[{"code":"MTD5735","stop_id":"BDWYCHPN:4","stop_lat":40.122708,"stop_lon":-88.207675,"stop_name":"Broadway & Chapin"}]},{"stop_id":"BDWYCLD","stop_name":"Broadway and Crystal Lake Dr.","code":"MTD6615","points":[{"code":"MTD6615","stop_id":"BDWYCLD:2","stop_lat":40.118707,"stop_lon":-88.207538,"stop_name":"Broadway & Crystal Lake"},{"code":"MTD6615","stop_id":"BDWYCLD:4","stop_lat":40.118942,"stop_lon":-88.207602,"stop_name":"Broadway & Crystal Lake"}]},{"stop_id":"BDWYCM","stop_name":"Broadway at Save A Lot","code":"MTD3432","points":[{"code":"MTD3432","stop_id":"BDWYCM:1","stop_lat":40.114213,"stop_lon":-88.207555,"stop_name":"Save A Lot"},{"code":"MTD3432","stop_id":"BDWYCM:2","stop_lat":40.114472,"stop_lon":-88.207387,"stop_name":"Save A Lot"}]},{"stop_id":"BDWYFRKLN","stop_name":"Broadway and Franklin","code":"MTD6141","points":[{"code":"MTD6141","stop_id":"BDWYFRKLN:2","stop_lat":40.120575,"stop_lon":-88.207598,"stop_name":"Broadway & Franklin"},{"code":"MTD6141","stop_id":"BDWYFRKLN:4","stop_lat":40.120693,"stop_lon":-88.207623,"stop_name":"Broadway & Franklin"}]},{"stop_id":"BDWYKER","stop_name":"Broadway and Kerr","code":"MTD2651","points":[{"code":"MTD2651","stop_id":"BDWYKER:1","stop_lat":40.121963,"stop_lon":-88.207528,"stop_name":"Broadway & Kerr"},{"code":"MTD2651","stop_id":"BDWYKER:2","stop_lat":40.121805,"stop_lon":-88.207598,"stop_name":"Broadway & Kerr"},{"code":"MTD2651","stop_id":"BDWYKER:4","stop_lat":40.121975,"stop_lon":-88.207673,"stop_name":"Broadway & Kerr"}]},{"stop_id":"BDWYLST","stop_name":"Broadway and Lake Side Terrace","code":"MTD2352","points":[{"code":"MTD2352","stop_id":"BDWYLST:2","stop_lat":40.120005,"stop_lon":-88.207568,"stop_name":"Broadway & Crystal View"},{"code":"MTD2352","stop_id":"BDWYLST:4","stop_lat":40.120148,"stop_lon":-88.207620,"stop_name":"Broadway & Crystal View"}]},{"stop_id":"BDWYOKLN","stop_name":"Broadway and Oakland","code":"MTD5414","points":[{"code":"MTD5414","stop_id":"BDWYOKLN:2","stop_lat":40.123655,"stop_lon":-88.207647,"stop_name":"Broadway & Oakland"},{"code":"MTD5414","stop_id":"BDWYOKLN:4","stop_lat":40.123795,"stop_lon":-88.207708,"stop_name":"Broadway & Oakland"}]},{"stop_id":"BDWYPK","stop_name":"Broadway and Park","code":"MTD3172","points":[{"code":"MTD3172","stop_id":"BDWYPK:2","stop_lat":40.117230,"stop_lon":-88.207505,"stop_name":"Broadway & Park"},{"code":"MTD3172","stop_id":"BDWYPK:3","stop_lat":40.117203,"stop_lon":-88.207662,"stop_name":"Broadway & Park"},{"code":"MTD3172","stop_id":"BDWYPK:4","stop_lat":40.117360,"stop_lon":-88.207572,"stop_name":"Broadway & Park"},{"code":"MTD3172","stop_id":"BDWYPK:8","stop_lat":40.117365,"stop_lon":-88.208048,"stop_name":"Broadway & Park"}]},{"stop_id":"BDWYTPSN","stop_name":"Broadway and Thompson","code":"MTD1324","points":[{"code":"MTD1324","stop_id":"BDWYTPSN:2","stop_lat":40.125610,"stop_lon":-88.207673,"stop_name":"Broadway & Thompson"},{"code":"MTD1324","stop_id":"BDWYTPSN:4","stop_lat":40.125905,"stop_lon":-88.207748,"stop_name":"Broadway & Thompson"}]},{"stop_id":"BDWYUNI","stop_name":"Broadway and University","code":"MTD2021","points":[{"code":"MTD2021","stop_id":"BDWYUNI:1","stop_lat":40.116578,"stop_lon":-88.207407,"stop_name":"Broadway & University"},{"code":"MTD2021","stop_id":"BDWYUNI:2","stop_lat":40.115792,"stop_lon":-88.207407,"stop_name":"Broadway & University"},{"code":"MTD2021","stop_id":"BDWYUNI:3","stop_lat":40.116302,"stop_lon":-88.207762,"stop_name":"Broadway & University"},{"code":"MTD2021","stop_id":"BDWYUNI:4","stop_lat":40.116777,"stop_lon":-88.207588,"stop_name":"Broadway & University"}]},{"stop_id":"BDWYWTR","stop_name":"Broadway and Water","code":"MTD7562","points":[{"code":"MTD7562","stop_id":"BDWYWTR:2","stop_lat":40.113403,"stop_lon":-88.207375,"stop_name":"Broadway & Water"},{"code":"MTD7562","stop_id":"BDWYWTR:4","stop_lat":40.113552,"stop_lon":-88.207547,"stop_name":"Broadway & Water"}]},{"stop_id":"BL","stop_name":"Big Lots","code":"MTD2333","points":[{"code":"MTD2333","stop_id":"BL:1","stop_lat":40.113535,"stop_lon":-88.280575,"stop_name":"Big Lots"},{"code":"MTD2333","stop_id":"BL:2","stop_lat":40.113588,"stop_lon":-88.280432,"stop_name":"Big Lots"}]},{"stop_id":"BLBOAPSPCT","stop_name":"Balboa and Prospect","code":"MTD7256","points":[{"code":"MTD7256","stop_id":"BLBOAPSPCT:1","stop_lat":40.094977,"stop_lon":-88.257462,"stop_name":"Balboa & Prospect"},{"code":"MTD7256","stop_id":"BLBOAPSPCT:6","stop_lat":40.094912,"stop_lon":-88.257218,"stop_name":"Balboa & Prospect"}]},{"stop_id":"BLBOASWD","stop_name":"Balboa and Southwest Dr.","code":"MTD6446","points":[{"code":"MTD6446","stop_id":"BLBOASWD:1","stop_lat":40.094972,"stop_lon":-88.256822,"stop_name":"Balboa & Southwest Dr."}]},{"stop_id":"BLGRSSDGGRS","stop_name":"Bluegrass and Sedgegrass","code":"MTD3164","points":[{"code":"MTD3164","stop_id":"BLGRSSDGGRS:4","stop_lat":40.126362,"stop_lon":-88.308092,"stop_name":"Bluegrass & Sedgegrass"}]},{"stop_id":"BLGRSSMRSG","stop_name":"Bluegrass and Summersage","code":"MTD3742","points":[{"code":"MTD3742","stop_id":"BLGRSSMRSG:3","stop_lat":40.127097,"stop_lon":-88.308220,"stop_name":"Bluegrass & Summersage"},{"code":"MTD3742","stop_id":"BLGRSSMRSG:4","stop_lat":40.127192,"stop_lon":-88.308090,"stop_name":"Bluegrass & Summersage"}]},{"stop_id":"BLGRSTLGRS","stop_name":"Bluegrass and Tallgrass","code":"MTD3540","points":[{"code":"MTD3540","stop_id":"BLGRSTLGRS:4","stop_lat":40.124009,"stop_lon":-88.307584,"stop_name":"Bluegrass & Tallgrass"}]},{"stop_id":"BLOMAL","stop_name":"Bloomington and Alabama","code":"MTD5541","points":[{"code":"MTD5541","stop_id":"BLOMAL:3","stop_lat":40.128943,"stop_lon":-88.250668,"stop_name":"Bloomington & Alabama"}]},{"stop_id":"BLOMCLLK","stop_name":"Bloomington and Clearlake","code":"MTD3366","points":[{"code":"MTD3366","stop_id":"BLOMCLLK:1","stop_lat":40.141175,"stop_lon":-88.284637,"stop_name":"Bloomington & Clearlake"}]},{"stop_id":"BLOMHGN","stop_name":"Bloomington and Hagan","code":"MTD1646","points":[{"code":"MTD1646","stop_id":"BLOMHGN:1","stop_lat":40.130648,"stop_lon":-88.254370,"stop_name":"Bloomington & Hagan"},{"code":"MTD1646","stop_id":"BLOMHGN:2","stop_lat":40.130560,"stop_lon":-88.254567,"stop_name":"Bloomington & Hagan"},{"code":"MTD1646","stop_id":"BLOMHGN:3","stop_lat":40.130760,"stop_lon":-88.254810,"stop_name":"Bloomington & Hagan"}]},{"stop_id":"BLOMHILND","stop_name":"Bloomington and Highland","code":"MTD6444","points":[{"code":"MTD6444","stop_id":"BLOMHILND:1","stop_lat":40.132702,"stop_lon":-88.258975,"stop_name":"Bloomington & Highland"},{"code":"MTD6444","stop_id":"BLOMHILND:3","stop_lat":40.132663,"stop_lon":-88.259327,"stop_name":"Bloomington & Highland"}]},{"stop_id":"BLOMKMRT","stop_name":"Bloomington at Home Depot","code":"MTD1426","points":[{"code":"MTD1426","stop_id":"BLOMKMRT:1","stop_lat":40.131538,"stop_lon":-88.256275,"stop_name":"Bloomington at Home Depot"},{"code":"MTD1426","stop_id":"BLOMKMRT:2","stop_lat":40.131520,"stop_lon":-88.256282,"stop_name":"Bloomington at Home Depot"},{"code":"MTD1426","stop_id":"BLOMKMRT:6","stop_lat":40.131330,"stop_lon":-88.256205,"stop_name":"Bloomington at Home Depot"}]},{"stop_id":"BLOMLA","stop_name":"Bloomington and Louisiana","code":"MTD2762","points":[{"code":"MTD2762","stop_id":"BLOMLA:1","stop_lat":40.128020,"stop_lon":-88.248410,"stop_name":"Bloomington & Louisiana"},{"code":"MTD2762","stop_id":"BLOMLA:3","stop_lat":40.128138,"stop_lon":-88.248830,"stop_name":"Bloomington & Louisiana"}]},{"stop_id":"BLOMMCNLY","stop_name":"Bloomington and McKinley","code":"MTD6276","points":[{"code":"MTD6276","stop_id":"BLOMMCNLY:1","stop_lat":40.134274,"stop_lon":-88.262553,"stop_name":"Bloomington & McKinley"},{"code":"MTD6276","stop_id":"BLOMMCNLY:2","stop_lat":40.134045,"stop_lon":-88.262657,"stop_name":"Bloomington & McKinley"},{"code":"MTD6276","stop_id":"BLOMMCNLY:7","stop_lat":40.133724,"stop_lon":-88.262822,"stop_name":"Bloomington & McKinley"}]},{"stop_id":"BLOMMTDF","stop_name":"Bloomington and Mittendorf","code":"MTD1626","points":[{"code":"MTD1626","stop_id":"BLOMMTDF:1","stop_lat":40.129628,"stop_lon":-88.252087,"stop_name":"Bloomington & Mittendorf"},{"code":"MTD1626","stop_id":"BLOMMTDF:3","stop_lat":40.129650,"stop_lon":-88.252227,"stop_name":"Bloomington & Mittendorf"}]},{"stop_id":"BLOMPNR","stop_name":"Bloomington Rd. at Pioneer Plaza","code":"MTD0021","points":[{"code":"MTD0021","stop_id":"BLOMPNR:1","stop_lat":40.131350,"stop_lon":-88.256223,"stop_name":"Bloomington  at Pioneer Plaza"}]},{"stop_id":"BLOMPSPCT","stop_name":"Bloomington and Prospect","code":"MTD1512","points":[{"code":"MTD1512","stop_id":"BLOMPSPCT:2","stop_lat":40.131920,"stop_lon":-88.257810,"stop_name":"Bloomington & Prospect"},{"code":"MTD1512","stop_id":"BLOMPSPCT:3","stop_lat":40.132388,"stop_lon":-88.258700,"stop_name":"Bloomington & Prospect"},{"code":"MTD1512","stop_id":"BLOMPSPCT:4","stop_lat":40.132519,"stop_lon":-88.258208,"stop_name":"Bloomington & Prospect"}]},{"stop_id":"BLOMSNST","stop_name":"Bloomington and Sunset","code":"MTD1566","points":[{"code":"MTD1566","stop_id":"BLOMSNST:1","stop_lat":40.128860,"stop_lon":-88.250252,"stop_name":"Bloomington & Sunset"}]},{"stop_id":"BLOMWLS","stop_name":"Bloomington and Willis","code":"MTD3541","points":[{"code":"MTD3541","stop_id":"BLOMWLS:1","stop_lat":40.133207,"stop_lon":-88.260138,"stop_name":"Bloomington & Willis"},{"code":"MTD3541","stop_id":"BLOMWLS:3","stop_lat":40.133183,"stop_lon":-88.260507,"stop_name":"Bloomington & Willis"}]},{"stop_id":"BNBLRAMY","stop_name":"Bonnie Blair and Amy","code":"MTD3305","points":[{"code":"MTD3305","stop_id":"BNBLRAMY:1","stop_lat":40.131118,"stop_lon":-88.299675,"stop_name":"Bonnie Blair & Amy"},{"code":"MTD3305","stop_id":"BNBLRAMY:2","stop_lat":40.130967,"stop_lon":-88.299766,"stop_name":"Bonnie Blair & Amy"}]},{"stop_id":"BNBLRGDMD","stop_name":"Bonnie Blair and Gold Medal","code":"MTD5227","points":[{"code":"MTD5227","stop_id":"BNBLRGDMD:1","stop_lat":40.132350,"stop_lon":-88.298253,"stop_name":"Bonnie Blair & Gold Medal"},{"code":"MTD5227","stop_id":"BNBLRGDMD:2","stop_lat":40.132209,"stop_lon":-88.298322,"stop_name":"Bonnie Blair & Gold Medal"}]},{"stop_id":"BNBLRNNBTH","stop_name":"Bonnie Blair and Nancy Beth","code":"MTD1666","points":[{"code":"MTD1666","stop_id":"BNBLRNNBTH:1","stop_lat":40.132902,"stop_lon":-88.296358,"stop_name":"Bonnie Blair & Nancy Beth"},{"code":"MTD1666","stop_id":"BNBLRNNBTH:3","stop_lat":40.132844,"stop_lon":-88.296586,"stop_name":"Bonnie Blair & Nancy Beth"}]},{"stop_id":"BNBLRSHRN","stop_name":"Bonnie Blair and Sharon","code":"MTD1253","points":[{"code":"MTD1253","stop_id":"BNBLRSHRN:1","stop_lat":40.131732,"stop_lon":-88.298967,"stop_name":"Bonnie Blair & Sharon"},{"code":"MTD1253","stop_id":"BNBLRSHRN:2","stop_lat":40.131589,"stop_lon":-88.299030,"stop_name":"Bonnie Blair & Sharon"}]},{"stop_id":"BNBLRVLR","stop_name":"Bonnie Blair and Valerie","code":"MTD5355","points":[{"code":"MTD5355","stop_id":"BNBLRVLR:1","stop_lat":40.130513,"stop_lon":-88.300352,"stop_name":"Bonnie Blair & Valerie"}]},{"stop_id":"BNFLDAPT","stop_name":"Brownfield and Airport Rd.","code":"MTD5066","points":[{"code":"MTD5066","stop_id":"BNFLDAPT:1","stop_lat":40.142147,"stop_lon":-88.169032,"stop_name":"Brownfield & Airport"},{"code":"MTD5066","stop_id":"BNFLDAPT:2","stop_lat":40.142035,"stop_lon":-88.169212,"stop_name":"Brownfield & Airport"},{"code":"MTD5066","stop_id":"BNFLDAPT:7","stop_lat":40.141893,"stop_lon":-88.169433,"stop_name":"Brownfield & Airport"}]},{"stop_id":"BNFLDARL","stop_name":"Brownfield and Arlene","code":"MTD4334","points":[{"code":"MTD4334","stop_id":"BNFLDARL:2","stop_lat":40.139730,"stop_lon":-88.171602,"stop_name":"Brownfield & Arlene"},{"code":"MTD4334","stop_id":"BNFLDARL:4","stop_lat":40.139850,"stop_lon":-88.171568,"stop_name":"Brownfield & Arlene"}]},{"stop_id":"BNFLDCFTN","stop_name":"Brownfield and Clifton","code":"MTD2626","points":[{"code":"MTD2626","stop_id":"BNFLDCFTN:2","stop_lat":40.138587,"stop_lon":-88.172793,"stop_name":"Brownfield & Clifton"},{"code":"MTD2626","stop_id":"BNFLDCFTN:4","stop_lat":40.138675,"stop_lon":-88.172782,"stop_name":"Brownfield & Clifton"}]},{"stop_id":"BNFLDCLMBA","stop_name":"Brownfield and Columbia","code":"MTD3656","points":[{"code":"MTD3656","stop_id":"BNFLDCLMBA:2","stop_lat":40.130972,"stop_lon":-88.182125,"stop_name":"Brownfield & Columbia"},{"code":"MTD3656","stop_id":"BNFLDCLMBA:3","stop_lat":40.131110,"stop_lon":-88.182298,"stop_name":"Brownfield & Columbia"},{"code":"MTD3656","stop_id":"BNFLDCLMBA:4","stop_lat":40.131055,"stop_lon":-88.182102,"stop_name":"Brownfield & Columbia"}]},{"stop_id":"BNFLDDON","stop_name":"Brownfield and Donald","code":"MTD3236","points":[{"code":"MTD3236","stop_id":"BNFLDDON:2","stop_lat":40.140890,"stop_lon":-88.170367,"stop_name":"Brownfield & Donald"},{"code":"MTD3236","stop_id":"BNFLDDON:4","stop_lat":40.140998,"stop_lon":-88.170350,"stop_name":"Brownfield & Donald"}]},{"stop_id":"BNFLDJHN","stop_name":"Brownfield and Johnson","code":"MTD1344","points":[{"code":"MTD1344","stop_id":"BNFLDJHN:2","stop_lat":40.136575,"stop_lon":-88.174853,"stop_name":"Brownfield & Johnson"},{"code":"MTD1344","stop_id":"BNFLDJHN:4","stop_lat":40.136663,"stop_lon":-88.174850,"stop_name":"Brownfield & Johnson"}]},{"stop_id":"BNFLDML","stop_name":"Brownfield and Mary Lou Dr.","code":"MTD1552","points":[{"code":"MTD1552","stop_id":"BNFLDML:2","stop_lat":40.134360,"stop_lon":-88.177215,"stop_name":"Brownfield & Mary Lou"},{"code":"MTD1552","stop_id":"BNFLDML:4","stop_lat":40.134523,"stop_lon":-88.177105,"stop_name":"Brownfield & Mary Lou"}]},{"stop_id":"BNFLDPKNS","stop_name":"Brownfield and Perkins","code":"MTD1136","points":[{"code":"MTD1136","stop_id":"BNFLDPKNS:1","stop_lat":40.129893,"stop_lon":-88.183366,"stop_name":"Brownfield & Perkins"},{"code":"MTD1136","stop_id":"BNFLDPKNS:2","stop_lat":40.129952,"stop_lon":-88.183729,"stop_name":"Brownfield & Perkins"},{"code":"MTD1136","stop_id":"BNFLDPKNS:4","stop_lat":40.130250,"stop_lon":-88.183440,"stop_name":"Brownfield & Perkins"}]},{"stop_id":"BNFLDPRVW","stop_name":"Brownfield and Prairieview","code":"MTD6566","points":[{"code":"MTD6566","stop_id":"BNFLDPRVW:2","stop_lat":40.132678,"stop_lon":-88.179362,"stop_name":"Brownfield & Prairieview"},{"code":"MTD6566","stop_id":"BNFLDPRVW:4","stop_lat":40.132823,"stop_lon":-88.179220,"stop_name":"Brownfield & Prairieview"}]},{"stop_id":"BNFLDSLYN","stop_name":"Brownfield and Sharlyn","code":"MTD2216","points":[{"code":"MTD2216","stop_id":"BNFLDSLYN:2","stop_lat":40.135350,"stop_lon":-88.176172,"stop_name":"Brownfield & Sharlyn"},{"code":"MTD2216","stop_id":"BNFLDSLYN:4","stop_lat":40.135477,"stop_lon":-88.176090,"stop_name":"Brownfield & Sharlyn"}]},{"stop_id":"BNTBRKBBCT","stop_name":"Bentbrook and Bentbrook Ct","code":"MTD3539","points":[{"code":"MTD3539","stop_id":"BNTBRKBBCT:1","stop_lat":40.097290,"stop_lon":-88.308517,"stop_name":"Bentbrook and Bentbrook ct"}]},{"stop_id":"BNTBRKCBLFLD","stop_name":"Bentbrook and Cobblefield","code":"MTD5384","points":[{"code":"MTD5384","stop_id":"BNTBRKCBLFLD:1","stop_lat":40.097668,"stop_lon":-88.307709,"stop_name":"Bentbrook and Cobblefield"}]},{"stop_id":"BNTBRKGLFCRK","stop_name":"Bentbrook and Golf Creek","code":"MTD1656","points":[{"code":"MTD1656","stop_id":"BNTBRKGLFCRK:3","stop_lat":40.093302,"stop_lon":-88.311257,"stop_name":"Bentbrook & Golf Creek"}]},{"stop_id":"BNTBRKPNCRST","stop_name":"Bentbrook and Pinecrest","code":"MTD1503","points":[{"code":"MTD1503","stop_id":"BNTBRKPNCRST:2","stop_lat":40.094550,"stop_lon":-88.311278,"stop_name":"Bentbrook & Pinecrest"}]},{"stop_id":"BNTBRKRVRKNL","stop_name":"Bentbrook and Riverknoll","code":"MTD0522","points":[{"code":"MTD0522","stop_id":"BNTBRKRVRKNL:1","stop_lat":40.096252,"stop_lon":-88.310783,"stop_name":"Bentbrook and Riverknoll"}]},{"stop_id":"BNTBRKSTLY","stop_name":"Bentbrook and Staley","code":"MTD1722","points":[{"code":"MTD1722","stop_id":"BNTBRKSTLY:6","stop_lat":40.090502,"stop_lon":-88.313817,"stop_name":"Bentbrook & Staley"}]},{"stop_id":"BRAD","stop_name":"Bradley between Pomona and WLRW","code":"MTD4612","points":[{"code":"MTD4612","stop_id":"BRAD:1","stop_lat":40.127508,"stop_lon":-88.291573,"stop_name":"Bradley"},{"code":"MTD4612","stop_id":"BRAD:2","stop_lat":40.127653,"stop_lon":-88.291603,"stop_name":"Bradley"}]},{"stop_id":"BRADCFD","stop_name":"Bradley and Country Fair Drive","code":"MTD6052","points":[{"code":"MTD6052","stop_id":"BRADCFD:1","stop_lat":40.127553,"stop_lon":-88.279923,"stop_name":"Bradley & Country Fair Dr."},{"code":"MTD6052","stop_id":"BRADCFD:3","stop_lat":40.127392,"stop_lon":-88.280433,"stop_name":"Bradley & Country Fair Dr."},{"code":"MTD6052","stop_id":"BRADCFD:8","stop_lat":40.127563,"stop_lon":-88.280618,"stop_name":"Bradley & Country Fair Dr."}]},{"stop_id":"BRADCLTN","stop_name":"Bradley and Clayton","code":"MTD2353","points":[{"code":"MTD2353","stop_id":"BRADCLTN:1","stop_lat":40.127647,"stop_lon":-88.286683,"stop_name":"Bradley & Clayton"},{"code":"MTD2353","stop_id":"BRADCLTN:2","stop_lat":40.127354,"stop_lon":-88.286762,"stop_name":"Bradley & Clayton"},{"code":"MTD2353","stop_id":"BRADCLTN:4","stop_lat":40.127700,"stop_lon":-88.286995,"stop_name":"Bradley & Clayton"},{"code":"MTD2353","stop_id":"BRADCLTN:5","stop_lat":40.127938,"stop_lon":-88.286742,"stop_name":"Bradley & Clayton"},{"code":"MTD2353","stop_id":"BRADCLTN:6","stop_lat":40.127450,"stop_lon":-88.286002,"stop_name":"Bradley & Clayton"}]},{"stop_id":"BRADCMI","stop_name":"Bradley and Champaign St.","code":"MTD3123","points":[{"code":"MTD3123","stop_id":"BRADCMI:1","stop_lat":40.127293,"stop_lon":-88.239797,"stop_name":"Bradley & Champaign"},{"code":"MTD3123","stop_id":"BRADCMI:3","stop_lat":40.127157,"stop_lon":-88.240102,"stop_name":"Bradley & Champaign"}]},{"stop_id":"BRADCRPS","stop_name":"Bradley and Crispus","code":"MTD3456","points":[{"code":"MTD3456","stop_id":"BRADCRPS:1","stop_lat":40.127373,"stop_lon":-88.229413,"stop_name":"Bradley & Crispus"}]},{"stop_id":"BRADCRVR","stop_name":"Bradley and Carver","code":"MTD7443","points":[{"code":"MTD7443","stop_id":"BRADCRVR:1","stop_lat":40.127387,"stop_lon":-88.228144,"stop_name":"Bradley & Carver"},{"code":"MTD7443","stop_id":"BRADCRVR:3","stop_lat":40.127265,"stop_lon":-88.228753,"stop_name":"Bradley & Carver"}]},{"stop_id":"BRADDNCN","stop_name":"Bradley and Duncan","code":"MTD2234","points":[{"code":"MTD2234","stop_id":"BRADDNCN:1","stop_lat":40.127692,"stop_lon":-88.295403,"stop_name":"Bradley & Duncan"},{"code":"MTD2234","stop_id":"BRADDNCN:3","stop_lat":40.127533,"stop_lon":-88.295850,"stop_name":"Bradley & Duncan"},{"code":"MTD2234","stop_id":"BRADDNCN:4","stop_lat":40.127789,"stop_lon":-88.295723,"stop_name":"Bradley & Duncan"}]},{"stop_id":"BRADELM","stop_name":"Bradley and Elm","code":"MTD3665","points":[{"code":"MTD3665","stop_id":"BRADELM:1","stop_lat":40.127217,"stop_lon":-88.250078,"stop_name":"Bradley & Elm"},{"code":"MTD3665","stop_id":"BRADELM:3","stop_lat":40.127127,"stop_lon":-88.250373,"stop_name":"Bradley & Elm"}]},{"stop_id":"BRADGH","stop_name":"Bradley and Garden Hills","code":"MTD6216","points":[{"code":"MTD6216","stop_id":"BRADGH:1","stop_lat":40.127418,"stop_lon":-88.271580,"stop_name":"Bradley & Garden Hills"},{"code":"MTD6216","stop_id":"BRADGH:3","stop_lat":40.127290,"stop_lon":-88.271723,"stop_name":"Bradley & Garden Hills"}]},{"stop_id":"BRADHGN","stop_name":"Bradley and Hagan","code":"MTD6232","points":[{"code":"MTD6232","stop_id":"BRADHGN:1","stop_lat":40.127208,"stop_lon":-88.254702,"stop_name":"Bradley & Hagan"},{"code":"MTD6232","stop_id":"BRADHGN:3","stop_lat":40.127122,"stop_lon":-88.254950,"stop_name":"Bradley & Hagan"},{"code":"MTD6232","stop_id":"BRADHGN:4","stop_lat":40.127280,"stop_lon":-88.254912,"stop_name":"Bradley & Hagan"},{"code":"MTD6232","stop_id":"BRADHGN:5","stop_lat":40.127427,"stop_lon":-88.254805,"stop_name":"Bradley & Hagan"}]},{"stop_id":"BRADHKRY","stop_name":"Bradley and Hickory","code":"MTD2577","points":[{"code":"MTD2577","stop_id":"BRADHKRY:1","stop_lat":40.127268,"stop_lon":-88.242190,"stop_name":"Bradley & Hickory"},{"code":"MTD2577","stop_id":"BRADHKRY:3","stop_lat":40.127152,"stop_lon":-88.242482,"stop_name":"Bradley & Hickory"}]},{"stop_id":"BRADJAS","stop_name":"Bradley and James","code":"MTD2622","points":[{"code":"MTD2622","stop_id":"BRADJAS:1","stop_lat":40.127330,"stop_lon":-88.265187,"stop_name":"Bradley & James"},{"code":"MTD2622","stop_id":"BRADJAS:3","stop_lat":40.127218,"stop_lon":-88.265400,"stop_name":"Bradley & James"}]},{"stop_id":"BRADMATS","stop_name":"Bradley and Mattis","code":"MTD3675","points":[{"code":"MTD3675","stop_id":"BRADMATS:1","stop_lat":40.127505,"stop_lon":-88.276413,"stop_name":"Bradley & Mattis"},{"code":"MTD3675","stop_id":"BRADMATS:2","stop_lat":40.127265,"stop_lon":-88.276803,"stop_name":"Bradley & Mattis"},{"code":"MTD3675","stop_id":"BRADMATS:3","stop_lat":40.127348,"stop_lon":-88.277290,"stop_name":"Bradley & Mattis"},{"code":"MTD3675","stop_id":"BRADMATS:4","stop_lat":40.127742,"stop_lon":-88.277060,"stop_name":"Bradley & Mattis"},{"code":"MTD3675","stop_id":"BRADMATS:7","stop_lat":40.126690,"stop_lon":-88.277050,"stop_name":"Bradley & Mattis"}]},{"stop_id":"BRADMCNLY","stop_name":"Bradley and McKinley","code":"MTD7503","points":[{"code":"MTD7503","stop_id":"BRADMCNLY:1","stop_lat":40.127268,"stop_lon":-88.262573,"stop_name":"Bradley & McKinley"},{"code":"MTD7503","stop_id":"BRADMCNLY:2","stop_lat":40.127077,"stop_lon":-88.262660,"stop_name":"Bradley & McKinley"},{"code":"MTD7503","stop_id":"BRADMCNLY:3","stop_lat":40.127192,"stop_lon":-88.262997,"stop_name":"Bradley & McKinley"},{"code":"MTD7503","stop_id":"BRADMCNLY:4","stop_lat":40.127380,"stop_lon":-88.262755,"stop_name":"Bradley & McKinley"}]},{"stop_id":"BRADNEIL","stop_name":"Bradley and Neil","code":"MTD5904","points":[{"code":"MTD5904","stop_id":"BRADNEIL:1","stop_lat":40.127290,"stop_lon":-88.242865,"stop_name":"Bradley & Neil"},{"code":"MTD5904","stop_id":"BRADNEIL:3","stop_lat":40.127126,"stop_lon":-88.243405,"stop_name":"Bradley & Neil"}]},{"stop_id":"BRADPSPCT","stop_name":"Bradley and Prospect","code":"MTD3451","points":[{"code":"MTD3451","stop_id":"BRADPSPCT:1","stop_lat":40.127243,"stop_lon":-88.257712,"stop_name":"Bradley & Prospect"},{"code":"MTD3451","stop_id":"BRADPSPCT:2","stop_lat":40.126987,"stop_lon":-88.257872,"stop_name":"Bradley & Prospect"},{"code":"MTD3451","stop_id":"BRADPSPCT:3","stop_lat":40.127095,"stop_lon":-88.258262,"stop_name":"Bradley & Prospect"},{"code":"MTD3451","stop_id":"BRADPSPCT:4","stop_lat":40.127395,"stop_lon":-88.258095,"stop_name":"Bradley & Prospect"},{"code":"MTD3451","stop_id":"BRADPSPCT:5","stop_lat":40.127608,"stop_lon":-88.257883,"stop_name":"Bradley & Prospect"}]},{"stop_id":"BRADRDWD","stop_name":"Bradley and Redwood","code":"MTD3067","points":[{"code":"MTD3067","stop_id":"BRADRDWD:1","stop_lat":40.127358,"stop_lon":-88.266830,"stop_name":"Bradley & Redwood"},{"code":"MTD3067","stop_id":"BRADRDWD:3","stop_lat":40.127247,"stop_lon":-88.267023,"stop_name":"Bradley & Redwood"}]},{"stop_id":"BRADRNDLF","stop_name":"Bradley and Randolph","code":"MTD2332","points":[{"code":"MTD2332","stop_id":"BRADRNDLF:1","stop_lat":40.127273,"stop_lon":-88.245068,"stop_name":"Bradley & Randolph"},{"code":"MTD2332","stop_id":"BRADRNDLF:8","stop_lat":40.127297,"stop_lon":-88.245737,"stop_name":"Bradley & Randolph"}]},{"stop_id":"BRADSTE","stop_name":"Bradley and State","code":"MTD3254","points":[{"code":"MTD3254","stop_id":"BRADSTE:1","stop_lat":40.127307,"stop_lon":-88.246697,"stop_name":"Bradley & State"},{"code":"MTD3254","stop_id":"BRADSTE:2","stop_lat":40.127225,"stop_lon":-88.247983,"stop_name":"Bradley & State"},{"code":"MTD3254","stop_id":"BRADSTE:3","stop_lat":40.127123,"stop_lon":-88.247188,"stop_name":"Bradley & State"},{"code":"MTD3254","stop_id":"BRADSTE:4","stop_lat":40.127298,"stop_lon":-88.247297,"stop_name":"Bradley & State"},{"code":"MTD3254","stop_id":"BRADSTE:7","stop_lat":40.126863,"stop_lon":-88.246965,"stop_name":"Bradley & State"}]},{"stop_id":"BRADWLNT","stop_name":"Bradley and Walnut","code":"MTD1051","points":[{"code":"MTD1051","stop_id":"BRADWLNT:1","stop_lat":40.127270,"stop_lon":-88.240950,"stop_name":"Bradley & Walnut"},{"code":"MTD1051","stop_id":"BRADWLNT:3","stop_lat":40.127152,"stop_lon":-88.241248,"stop_name":"Bradley & Walnut"}]},{"stop_id":"BRADWLS","stop_name":"Bradley and Willis","code":"MTD6422","points":[{"code":"MTD6422","stop_id":"BRADWLS:1","stop_lat":40.127237,"stop_lon":-88.260898,"stop_name":"Bradley & Willis"},{"code":"MTD6422","stop_id":"BRADWLS:3","stop_lat":40.127157,"stop_lon":-88.260530,"stop_name":"Bradley & Willis"}]},{"stop_id":"BRADWMBG","stop_name":"Bradley and Willliamsburg","code":"MTD6014","points":[{"code":"MTD6014","stop_id":"BRADWMBG:1","stop_lat":40.127408,"stop_lon":-88.270577,"stop_name":"Bradley & Williamsburg"},{"code":"MTD6014","stop_id":"BRADWMBG:3","stop_lat":40.127292,"stop_lon":-88.270870,"stop_name":"Bradley & Williamsburg"},{"code":"MTD6014","stop_id":"BRADWMBG:4","stop_lat":40.127477,"stop_lon":-88.270792,"stop_name":"Bradley & Williamsburg"}]},{"stop_id":"BRDNTLSN","stop_name":"Bardeen and Toalson","code":"MTD0215","points":[{"code":"MTD0215","stop_id":"BRDNTLSN:3","stop_lat":40.152052,"stop_lon":-88.252456,"stop_name":"Bardeen & Toalson"}]},{"stop_id":"BRDWLKMJR","stop_name":"Boardwalk and Meijer Dr.","code":"MTD2212","points":[{"code":"MTD2212","stop_id":"BRDWLKMJR:2","stop_lat":40.146315,"stop_lon":-88.261973,"stop_name":"Boardwalk & Meijer Dr."}]},{"stop_id":"BRDWLKTCB","stop_name":"Boardwalk and Town Center Blvd","code":"MTD6132","points":[{"code":"MTD6132","stop_id":"BRDWLKTCB:1","stop_lat":40.142669,"stop_lon":-88.261703,"stop_name":"Boardwalk & Town Center"},{"code":"MTD6132","stop_id":"BRDWLKTCB:2","stop_lat":40.142370,"stop_lon":-88.261648,"stop_name":"Boardwalk & Town Center"},{"code":"MTD6132","stop_id":"BRDWLKTCB:7","stop_lat":40.142353,"stop_lon":-88.261722,"stop_name":"Boardwalk & Town Center"}]},{"stop_id":"BRDYGBC","stop_name":"Brady at Grace Baptist Church","code":"MTD1101","points":[{"code":"MTD1101","stop_id":"BRDYGBC:1","stop_lat":40.111115,"stop_lon":-88.170497,"stop_name":"Brady at Grace Baptist Church"},{"code":"MTD1101","stop_id":"BRDYGBC:2","stop_lat":40.110533,"stop_lon":-88.170458,"stop_name":"Brady at Grace Baptist Church"}]},{"stop_id":"BRDYHI","stop_name":"Brady and High","code":"MTD3125","points":[{"code":"MTD3125","stop_id":"BRDYHI:3","stop_lat":40.109035,"stop_lon":-88.170803,"stop_name":"Brady & High"},{"code":"MTD3125","stop_id":"BRDYHI:4","stop_lat":40.109118,"stop_lon":-88.170578,"stop_name":"Brady & High"}]},{"stop_id":"BRNTWDGLDVW","stop_name":"Brentwood and Goldenview","code":"MTD5457","points":[{"code":"MTD5457","stop_id":"BRNTWDGLDVW:2","stop_lat":40.107171,"stop_lon":-88.302040,"stop_name":"Brentwood & Goldenview"}]},{"stop_id":"BRTTRLKNTNKNL","stop_name":"Brittany Trail and Kensington Knoll","code":"MTD7561","points":[{"code":"MTD7561","stop_id":"BRTTRLKNTNKNL:1","stop_lat":40.092147,"stop_lon":-88.315345,"stop_name":"Brittany Trail & Kensington Knoll"}]},{"stop_id":"BRTTRLMLKN","stop_name":"Brittany Trail and Mullikin","code":"MTD5477","points":[{"code":"MTD5477","stop_id":"BRTTRLMLKN:1","stop_lat":40.092541,"stop_lon":-88.322135,"stop_name":"Brittany Trail & Mullikin"},{"code":"MTD5477","stop_id":"BRTTRLMLKN:2","stop_lat":40.092361,"stop_lon":-88.322105,"stop_name":"Brittany Trail & Mullikin"},{"code":"MTD5477","stop_id":"BRTTRLMLKN:4","stop_lat":40.092464,"stop_lon":-88.322350,"stop_name":"Brittany Trail & Mullikin"}]},{"stop_id":"BRTTRLSTHFRD","stop_name":"Brittany Trail and Southford","code":"MTD5110","points":[{"code":"MTD5110","stop_id":"BRTTRLSTHFRD:1","stop_lat":40.092580,"stop_lon":-88.316563,"stop_name":"Brittany Trail & Southford"}]},{"stop_id":"BRTTRLSTHFRDTR","stop_name":"Brittany Trail and Southford Trace West","code":"MTD5516","points":[{"code":"MTD5516","stop_id":"BRTTRLSTHFRDTR:1","stop_lat":40.093182,"stop_lon":-88.320996,"stop_name":"Brittany Trail & Southford Trace West"}]},{"stop_id":"BRWSLNST","stop_name":"Burwash and Lynhurst","code":"MTD2636","points":[{"code":"MTD2636","stop_id":"BRWSLNST:1","stop_lat":40.074348,"stop_lon":-88.251263,"stop_name":"Burwash & Lynhurst"}]},{"stop_id":"BRWSWDFLD","stop_name":"Burwash and Woodfield","code":"MTD3652","points":[{"code":"MTD3652","stop_id":"BRWSWDFLD:1","stop_lat":40.074253,"stop_lon":-88.249573,"stop_name":"Burwash & Woodfield"},{"code":"MTD3652","stop_id":"BRWSWDFLD:2","stop_lat":40.074078,"stop_lon":-88.249708,"stop_name":"Burwash & Woodfield"},{"code":"MTD3652","stop_id":"BRWSWDFLD:3","stop_lat":40.074213,"stop_lon":-88.249880,"stop_name":"Burwash & Woodfield"},{"code":"MTD3652","stop_id":"BRWSWDFLD:7","stop_lat":40.073900,"stop_lon":-88.249800,"stop_name":"Burwash & Woodfield"}]},{"stop_id":"BSLNRMN","stop_name":"Beslin and Romine","code":"MTD5235","points":[{"code":"MTD5235","stop_id":"BSLNRMN:1","stop_lat":40.120290,"stop_lon":-88.226993,"stop_name":"Beslin & Romine"},{"code":"MTD5235","stop_id":"BSLNRMN:4","stop_lat":40.120353,"stop_lon":-88.227165,"stop_name":"Beslin & Romine"}]},{"stop_id":"BTSLRMN","stop_name":"Butzow and Lierman","code":"MTD2446","points":[{"code":"MTD2446","stop_id":"BTSLRMN:2","stop_lat":40.117478,"stop_lon":-88.189460,"stop_name":"Butzow & Lierman"}]},{"stop_id":"CACC","stop_name":"Carroll at Carroll Addition Community Center","code":"MTD1616","points":[{"code":"MTD1616","stop_id":"CACC:1","stop_lat":40.125118,"stop_lon":-88.194722,"stop_name":"Carroll at CACC"}]},{"stop_id":"CB","stop_name":"Country Brook","code":"MTD1735","points":[{"code":"MTD1735","stop_id":"CB:1","stop_lat":40.112855,"stop_lon":-88.287650,"stop_name":"Country Brook"},{"code":"MTD1735","stop_id":"CB:2","stop_lat":40.112990,"stop_lon":-88.287320,"stop_name":"Country Brook"}]},{"stop_id":"CBLFDABDN","stop_name":"Cobblefield and Aberdeen","code":"MTD6630","points":[{"code":"MTD6630","stop_id":"CBLFDABDN:4","stop_lat":40.105507,"stop_lon":-88.309334,"stop_name":"Cobblefield and Aberdeen"}]},{"stop_id":"CBLFLDBDGPT","stop_name":"Cobblefield and Bridge Point Dr","code":"MTD0603","points":[{"code":"MTD0603","stop_id":"CBLFLDBDGPT:4","stop_lat":40.099663,"stop_lon":-88.308807,"stop_name":"Cobblefield and Bridge Point Dr"}]},{"stop_id":"CBLFLDBLML","stop_name":"Cobblefield and Balmoral","code":"MTD9467","points":[{"code":"MTD9467","stop_id":"CBLFLDBLML:4","stop_lat":40.106293,"stop_lon":-88.309547,"stop_name":"Cobblefield and Balmoral"}]},{"stop_id":"CBLFLDCRL","stop_name":"Cobblefield and Crail","code":"MTD5159","points":[{"code":"MTD5159","stop_id":"CBLFLDCRL:4","stop_lat":40.104668,"stop_lon":-88.309395,"stop_name":"Cobblefield and Crail"}]},{"stop_id":"CBLFLDEGLWD","stop_name":"Cobblefield and Engelwood","code":"MTD7709","points":[{"code":"MTD7709","stop_id":"CBLFLDEGLWD:4","stop_lat":40.101994,"stop_lon":-88.309181,"stop_name":"Cobblefield and Engelwood"}]},{"stop_id":"CBLFLDGLNBRK","stop_name":"Cobblefield and Glenn Brooke","code":"MTD3159","points":[{"code":"MTD3159","stop_id":"CBLFLDGLNBRK:4","stop_lat":40.102768,"stop_lon":-88.309196,"stop_name":"Cobblefield and Glenn Brooke"}]},{"stop_id":"CBLFLDINV","stop_name":"Cobblefield and Inverness","code":"MTD1494","points":[{"code":"MTD1494","stop_id":"CBLFLDINV:3","stop_lat":40.106777,"stop_lon":-88.309708,"stop_name":"Cobblefield and Inverness"}]},{"stop_id":"CBRTPK","stop_name":"Colbert Park","code":"MTD5400","points":[{"code":"MTD5400","stop_id":"CBRTPK:1","stop_lat":40.054448,"stop_lon":-88.249321,"stop_name":"Colbert Park"},{"code":"MTD5400","stop_id":"CBRTPK:2","stop_lat":40.054509,"stop_lon":-88.248971,"stop_name":"Colbert Park"}]},{"stop_id":"CCCH","stop_name":"Champaign CountyCourt House","code":"MTD3212","points":[{"code":"MTD3212","stop_id":"CCCH:1","stop_lat":40.112353,"stop_lon":-88.206482,"stop_name":"Champaign County Court House"}]},{"stop_id":"CCNH","stop_name":"County Nursing Home","code":"MTD2236","points":[{"code":"MTD2236","stop_id":"CCNH:1","stop_lat":40.112910,"stop_lon":-88.186470,"stop_name":"County Nursing Home"},{"code":"MTD2236","stop_id":"CCNH:2","stop_lat":40.112995,"stop_lon":-88.186458,"stop_name":"County Nursing Home"}]},{"stop_id":"CCRAPTS","stop_name":"Country Club Rd. at Apts.","code":"MTD0462","points":[{"code":"MTD0462","stop_id":"CCRAPTS:2","stop_lat":40.127392,"stop_lon":-88.201320,"stop_name":"Country Club Rd. at Apts."}]},{"stop_id":"CCRDVSN","stop_name":"Country Club and Division","code":"MTD7346","points":[{"code":"MTD7346","stop_id":"CCRDVSN:1","stop_lat":40.127478,"stop_lon":-88.205332,"stop_name":"Country Club & Division"},{"code":"MTD7346","stop_id":"CCRDVSN:3","stop_lat":40.127445,"stop_lon":-88.205525,"stop_name":"Country Club & Division"}]},{"stop_id":"CCRGFVW","stop_name":"Country Club and Golfview","code":"MTD6165","points":[{"code":"MTD6165","stop_id":"CCRGFVW:1","stop_lat":40.127378,"stop_lon":-88.202147,"stop_name":"Country Club & Golfview"},{"code":"MTD6165","stop_id":"CCRGFVW:3","stop_lat":40.127357,"stop_lon":-88.202340,"stop_name":"Country Club & Golfview"}]},{"stop_id":"CCRWLLW","stop_name":"Country Club and Willow","code":"MTD2223","points":[{"code":"MTD2223","stop_id":"CCRWLLW:3","stop_lat":40.127352,"stop_lon":-88.200895,"stop_name":"Country Club & Willow"}]},{"stop_id":"CCSJ","stop_name":"County Satellite Jail","code":"MTD1223","points":[{"code":"MTD1223","stop_id":"CCSJ:2","stop_lat":40.109045,"stop_lon":-88.188713,"stop_name":"County Satellite Jail"}]},{"stop_id":"CCVA","stop_name":"College Ct. and Virginia","code":"MTD3163","points":[{"code":"MTD3163","stop_id":"CCVA:3","stop_lat":40.099288,"stop_lon":-88.222193,"stop_name":"College Ct. & Virginia"}]},{"stop_id":"CE","stop_name":"Central High East","code":"MTD6231","points":[{"code":"MTD6231","stop_id":"CE:9","stop_lat":40.116590,"stop_lon":-88.251838,"stop_name":"Central High East"}]},{"stop_id":"CENTRAL","stop_name":"Central High","code":"MTD8078","points":[{"code":"MTD8078","stop_id":"CENTRAL:9","stop_lat":40.116611,"stop_lon":-88.251808,"stop_name":"Central High"}]},{"stop_id":"CF","stop_name":"Country Fair","code":"MTD2456","points":[{"code":"MTD2456","stop_id":"CF:1","stop_lat":40.113470,"stop_lon":-88.279460,"stop_name":"Country Fair"},{"code":"MTD2456","stop_id":"CF:2","stop_lat":40.113577,"stop_lon":-88.279252,"stop_name":"Country Fair"}]},{"stop_id":"CFDCAMP","stop_name":"Country Fair Dr. and Camp","code":"MTD0067","points":[{"code":"MTD0067","stop_id":"CFDCAMP:2","stop_lat":40.125583,"stop_lon":-88.280128,"stop_name":"Country Fair Dr. & Camp"},{"code":"MTD0067","stop_id":"CFDCAMP:4","stop_lat":40.125800,"stop_lon":-88.280232,"stop_name":"Countyr Fair Dr. & Camp"}]},{"stop_id":"CFDCHCH","stop_name":"Country Fair Dr. and Church","code":"MTD3642","points":[{"code":"MTD3642","stop_id":"CFDCHCH:2","stop_lat":40.118302,"stop_lon":-88.281672,"stop_name":"Country Fair Dr. & Church"}]},{"stop_id":"CFDCONE","stop_name":"Country Fair Dr. and Cone","code":"MTD2213","points":[{"code":"MTD2213","stop_id":"CFDCONE:2","stop_lat":40.123677,"stop_lon":-88.281047,"stop_name":"Country Fair Dr. & Cone"},{"code":"MTD2213","stop_id":"CFDCONE:4","stop_lat":40.123895,"stop_lon":-88.280987,"stop_name":"Country Fair Dr. & Cone"}]},{"stop_id":"CFDHNDL","stop_name":"Country Fair Dr. at Hundman","code":"MTD4572","points":[{"code":"MTD4572","stop_id":"CFDHNDL:1","stop_lat":40.119343,"stop_lon":-88.281805,"stop_name":"Country Fair Dr. at Hundman"}]},{"stop_id":"CFDPK","stop_name":"Country Fair Dr. and Park","code":"MTD3416","points":[{"code":"MTD3416","stop_id":"CFDPK:2","stop_lat":40.117253,"stop_lon":-88.281613,"stop_name":"Country Fair Dr. & Park"},{"code":"MTD3416","stop_id":"CFDPK:4","stop_lat":40.117613,"stop_lon":-88.281792,"stop_name":"Country Fair Dr. & Park"}]},{"stop_id":"CFDRP","stop_name":"Country Fair Dr. at R.P. Lumber","code":"MTD1952","points":[{"code":"MTD1952","stop_id":"CFDRP:1","stop_lat":40.119687,"stop_lon":-88.281793,"stop_name":"Country Fair Dr. at R.P. Lumber"},{"code":"MTD1952","stop_id":"CFDRP:2","stop_lat":40.119433,"stop_lon":-88.281663,"stop_name":"Country Fair Dr. at R.P. Lumber"}]},{"stop_id":"CFDSPFLD","stop_name":"Springfield and Country Fair Dr.","code":"MTD4641","points":[{"code":"MTD4641","stop_id":"CFDSPFLD:1","stop_lat":40.112974,"stop_lon":-88.282494,"stop_name":"Springfield & Country Fair Dr."},{"code":"MTD4641","stop_id":"CFDSPFLD:2","stop_lat":40.112730,"stop_lon":-88.282778,"stop_name":"Springfield & Country Fair Dr."},{"code":"MTD4641","stop_id":"CFDSPFLD:5","stop_lat":40.113344,"stop_lon":-88.282826,"stop_name":"Springfield & Country Fair Dr."},{"code":"MTD4641","stop_id":"CFDSPFLD:7","stop_lat":40.112358,"stop_lon":-88.282877,"stop_name":"Springfield & Country Fair Dr."}]},{"stop_id":"CFDSSI","stop_name":"Country Fair Dr. at Social Security","code":"MTD7024","points":[{"code":"MTD7024","stop_id":"CFDSSI:1","stop_lat":40.115857,"stop_lon":-88.281763,"stop_name":"Social Security"},{"code":"MTD7024","stop_id":"CFDSSI:2","stop_lat":40.115833,"stop_lon":-88.281633,"stop_name":"Social Security"}]},{"stop_id":"CFDUNI","stop_name":"Country Fair Dr. and University","code":"MTD4555","points":[{"code":"MTD4555","stop_id":"CFDUNI:4","stop_lat":40.116768,"stop_lon":-88.281773,"stop_name":"Country Fair Dr. & University"}]},{"stop_id":"CFS","stop_name":"Country Fair South Entrance","code":"MTD0347","points":[{"code":"MTD0347","stop_id":"CFS:4","stop_lat":40.113065,"stop_lon":-88.281685,"stop_name":"Country Fair South Entrance"}]},{"stop_id":"CFW","stop_name":"Country Fair West Entrance","code":"MTD2643","points":[{"code":"MTD2643","stop_id":"CFW:1","stop_lat":40.114282,"stop_lon":-88.281910,"stop_name":"Country Fair West Entrance"},{"code":"MTD2643","stop_id":"CFW:2","stop_lat":40.114177,"stop_lon":-88.282207,"stop_name":"Country Fair West Entrance"},{"code":"MTD2643","stop_id":"CFW:4","stop_lat":40.114408,"stop_lon":-88.282017,"stop_name":"Country Fair West Entrance"},{"code":"MTD2643","stop_id":"CFW:6","stop_lat":40.114169,"stop_lon":-88.281915,"stop_name":"Country Fair West"},{"code":"MTD2643","stop_id":"CFW:9","stop_lat":40.114068,"stop_lon":-88.282334,"stop_name":"Country Fair West Entrance"}]},{"stop_id":"CHCH","stop_name":"Church between New and Prospect","code":"MTD7155","points":[{"code":"MTD7155","stop_id":"CHCH:2","stop_lat":40.118332,"stop_lon":-88.255940,"stop_name":"Church St."}]},{"stop_id":"CHCHCRSN","stop_name":"Church and Carson","code":"MTD2335","points":[{"code":"MTD2335","stop_id":"CHCHCRSN:1","stop_lat":40.118442,"stop_lon":-88.271465,"stop_name":"Church & Carson"}]},{"stop_id":"CHCHDRPR","stop_name":"Church and Draper","code":"MTD7566","points":[{"code":"MTD7566","stop_id":"CHCHDRPR:1","stop_lat":40.118402,"stop_lon":-88.270196,"stop_name":"Church & Draper"}]},{"stop_id":"CHCHEDWN","stop_name":"Church and Edwin","code":"MTD6503","points":[{"code":"MTD6503","stop_id":"CHCHEDWN:1","stop_lat":40.118361,"stop_lon":-88.266053,"stop_name":"Church & Edwin"}]},{"stop_id":"CHCHELM","stop_name":"Church and Elm","code":"MTD2164","points":[{"code":"MTD2164","stop_id":"CHCHELM:1","stop_lat":40.118317,"stop_lon":-88.250017,"stop_name":"Church & Elm"},{"code":"MTD2164","stop_id":"CHCHELM:2","stop_lat":40.118150,"stop_lon":-88.250067,"stop_name":"Church & Elm"}]},{"stop_id":"CHCHFAIR","stop_name":"Church and Fair","code":"MTD1427","points":[{"code":"MTD1427","stop_id":"CHCHFAIR:1","stop_lat":40.118425,"stop_lon":-88.272330,"stop_name":"Church & Fair"}]},{"stop_id":"CHCHGRFLD","stop_name":"Church and Garfield","code":"MTD5721","points":[{"code":"MTD5721","stop_id":"CHCHGRFLD:1","stop_lat":40.118365,"stop_lon":-88.269005,"stop_name":"Church & Garfield"}]},{"stop_id":"CHCHJAS","stop_name":"Church and James","code":"MTD4236","points":[{"code":"MTD4236","stop_id":"CHCHJAS:1","stop_lat":40.118323,"stop_lon":-88.264963,"stop_name":"Church & James"}]},{"stop_id":"CHCHLYN","stop_name":"Church and Lynn","code":"MTD6257","points":[{"code":"MTD6257","stop_id":"CHCHLYN:1","stop_lat":40.118322,"stop_lon":-88.251735,"stop_name":"Church & Lynn"},{"code":"MTD6257","stop_id":"CHCHLYN:2","stop_lat":40.118153,"stop_lon":-88.251846,"stop_name":"Church & Lynn"}]},{"stop_id":"CHCHMATS","stop_name":"Church and Mattis","code":"MTD6512","points":[{"code":"MTD6512","stop_id":"CHCHMATS:1","stop_lat":40.118498,"stop_lon":-88.276607,"stop_name":"Church & Mattis"}]},{"stop_id":"CHCHMCNLY","stop_name":"Church and McKinley","code":"MTD1356","points":[{"code":"MTD1356","stop_id":"CHCHMCNLY:1","stop_lat":40.118340,"stop_lon":-88.262458,"stop_name":"Church & McKinley"}]},{"stop_id":"CHCHMLR","stop_name":"Church and Miller","code":"MTD2163","points":[{"code":"MTD2163","stop_id":"CHCHMLR:1","stop_lat":40.118427,"stop_lon":-88.273126,"stop_name":"Church & Miller"}]},{"stop_id":"CHCHNEIL","stop_name":"Church and Neil","code":"MTD7533","points":[{"code":"MTD7533","stop_id":"CHCHNEIL:1","stop_lat":40.118148,"stop_lon":-88.243319,"stop_name":"Church & Neil"},{"code":"MTD7533","stop_id":"CHCHNEIL:3","stop_lat":40.118247,"stop_lon":-88.243730,"stop_name":"Church & Neil"}]},{"stop_id":"CHCHNEW","stop_name":"Church and New","code":"MTD5172","points":[{"code":"MTD5172","stop_id":"CHCHNEW:1","stop_lat":40.118318,"stop_lon":-88.254227,"stop_name":"Church & New"}]},{"stop_id":"CHCHORCD","stop_name":"Church and Orchard","code":"MTD3505","points":[{"code":"MTD3505","stop_id":"CHCHORCD:1","stop_lat":40.118343,"stop_lon":-88.214266,"stop_name":"Church & Orchard"},{"code":"MTD3505","stop_id":"CHCHORCD:3","stop_lat":40.118281,"stop_lon":-88.214563,"stop_name":"Church & Orchard"}]},{"stop_id":"CHCHPRRE","stop_name":"Church and Prairie","code":"MTD1651","points":[{"code":"MTD1651","stop_id":"CHCHPRRE:1","stop_lat":40.118290,"stop_lon":-88.248378,"stop_name":"Church & Prairie"}]},{"stop_id":"CHCHPSPCT","stop_name":"Church and Prospect","code":"MTD0223","points":[{"code":"MTD0223","stop_id":"CHCHPSPCT:1","stop_lat":40.118298,"stop_lon":-88.257177,"stop_name":"Church & Prospect"},{"code":"MTD0223","stop_id":"CHCHPSPCT:4","stop_lat":40.118350,"stop_lon":-88.257935,"stop_name":"Church & Prospect"}]},{"stop_id":"CHCHRNDLF","stop_name":"Church and Randolph","code":"MTD2560","points":[{"code":"MTD2560","stop_id":"CHCHRNDLF:1","stop_lat":40.118320,"stop_lon":-88.244995,"stop_name":"Church & Randolph"},{"code":"MTD2560","stop_id":"CHCHRNDLF:3","stop_lat":40.118212,"stop_lon":-88.245349,"stop_name":"Church & Randolph"}]},{"stop_id":"CHCHRSL","stop_name":"Church and Russell","code":"MTD5535","points":[{"code":"MTD5535","stop_id":"CHCHRSL:1","stop_lat":40.118358,"stop_lon":-88.267172,"stop_name":"Church & Russell"}]},{"stop_id":"CHCHSTE","stop_name":"Church and State","code":"MTD6432","points":[{"code":"MTD6432","stop_id":"CHCHSTE:1","stop_lat":40.118340,"stop_lon":-88.246672,"stop_name":"Church & State"},{"code":"MTD6432","stop_id":"CHCHSTE:6","stop_lat":40.118190,"stop_lon":-88.246493,"stop_name":"Church & State"},{"code":"MTD6432","stop_id":"CHCHSTE:7","stop_lat":40.117972,"stop_lon":-88.246842,"stop_name":"Church & State"}]},{"stop_id":"CHCHVCTR","stop_name":"Church and Victor","code":"MTD3244","points":[{"code":"MTD3244","stop_id":"CHCHVCTR:1","stop_lat":40.118447,"stop_lon":-88.274765,"stop_name":"Church & Victor"}]},{"stop_id":"CHCHWLS","stop_name":"Church and Willis","code":"MTD7654","points":[{"code":"MTD7654","stop_id":"CHCHWLS:1","stop_lat":40.118322,"stop_lon":-88.260157,"stop_name":"Church & Willis"}]},{"stop_id":"CHEMLS","stop_name":"Chemical and Life Sciences","code":"MTD6242","points":[{"code":"MTD6242","stop_id":"CHEMLS:1","stop_lat":40.108040,"stop_lon":-88.223962,"stop_name":"Chemical & Life Sciences"}]},{"stop_id":"CHHLAPLWD","stop_name":"Cherry Hills and Applewood","code":"MTD1252","points":[{"code":"MTD1252","stop_id":"CHHLAPLWD:1","stop_lat":40.082148,"stop_lon":-88.289892,"stop_name":"Cherry Hills & Applewood"},{"code":"MTD1252","stop_id":"CHHLAPLWD:3","stop_lat":40.082040,"stop_lon":-88.289900,"stop_name":"Cherry Hills & Applewood"}]},{"stop_id":"CHHLBYHL","stop_name":"Cherry Hills and Bay Hill","code":"MTD4072","points":[{"code":"MTD4072","stop_id":"CHHLBYHL:2","stop_lat":40.073673,"stop_lon":-88.289960,"stop_name":"Cherry Hills & Bay Hill"},{"code":"MTD4072","stop_id":"CHHLBYHL:4","stop_lat":40.073958,"stop_lon":-88.290161,"stop_name":"Cherry Hills & Bay Hill"}]},{"stop_id":"CHHLCPRTRE","stop_name":"Cherry Hills and Coppertree","code":"MTD5312","points":[{"code":"MTD5312","stop_id":"CHHLCPRTRE:1","stop_lat":40.081795,"stop_lon":-88.290603,"stop_name":"Cherry Hills & Coppertree"},{"code":"MTD5312","stop_id":"CHHLCPRTRE:3","stop_lat":40.081730,"stop_lon":-88.290650,"stop_name":"Cherry Hills & Coppertree"}]},{"stop_id":"CHHLCTS","stop_name":"Cherry Hills and Curtis","code":"MTD7573","points":[{"code":"MTD7573","stop_id":"CHHLCTS:4","stop_lat":40.069558,"stop_lon":-88.291844,"stop_name":"Cherry Hills & Curtis"},{"code":"MTD7573","stop_id":"CHHLCTS:5","stop_lat":40.069558,"stop_lon":-88.291743,"stop_name":"Cherry Hills & Curtis"}]},{"stop_id":"CHHLCYPCK","stop_name":"Cherry Hills and Cypress Creek","code":"MTD6011","points":[{"code":"MTD6011","stop_id":"CHHLCYPCK:2","stop_lat":40.071077,"stop_lon":-88.291633,"stop_name":"Cherry Hills & Cypress Creek"},{"code":"MTD6011","stop_id":"CHHLCYPCK:4","stop_lat":40.071247,"stop_lon":-88.291583,"stop_name":"Cherry Hills & Cypress Creek"}]},{"stop_id":"CHHLLKVW","stop_name":"Cherry Hills and Lakeview","code":"MTD5631","points":[{"code":"MTD5631","stop_id":"CHHLLKVW:2","stop_lat":40.081640,"stop_lon":-88.291530,"stop_name":"Cherry Hills & Lakeview"},{"code":"MTD5631","stop_id":"CHHLLKVW:7","stop_lat":40.081490,"stop_lon":-88.291633,"stop_name":"Cherry Hills & Lakeview"}]},{"stop_id":"CHHLPNVY","stop_name":"Cherry Hills and Pine Valley","code":"MTD3072","points":[{"code":"MTD3072","stop_id":"CHHLPNVY:2","stop_lat":40.071782,"stop_lon":-88.290955,"stop_name":"Cherry Hills & Pine Valley"},{"code":"MTD3072","stop_id":"CHHLPNVY:4","stop_lat":40.071947,"stop_lon":-88.290933,"stop_name":"Cherry Hills & Pine Valley"}]},{"stop_id":"CHSTRWTR","stop_name":"Chester and Water","code":"MTD1234","points":[{"code":"MTD1234","stop_id":"CHSTRWTR:1","stop_lat":40.115827,"stop_lon":-88.239489,"stop_name":"Chester & Water"}]},{"stop_id":"CLMBAHKRY","stop_name":"Columbia and Hickory","code":"MTD3514","points":[{"code":"MTD3514","stop_id":"CLMBAHKRY:1","stop_lat":40.121162,"stop_lon":-88.242363,"stop_name":"Columbia & Hickory"}]},{"stop_id":"CLMBAHNK","stop_name":"Columbia and Hancock","code":"MTD2764","points":[{"code":"MTD2764","stop_id":"CLMBAHNK:1","stop_lat":40.133353,"stop_lon":-88.188742,"stop_name":"Columbia & Hancock"}]},{"stop_id":"CLMBANEIL","stop_name":"Columbia and Neil","code":"MTD2635","points":[{"code":"MTD2635","stop_id":"CLMBANEIL:1","stop_lat":40.121159,"stop_lon":-88.243217,"stop_name":"Columbia & Neil"}]},{"stop_id":"CLMBARNDLF","stop_name":"Columbia and Randolph","code":"MTD6224","points":[{"code":"MTD6224","stop_id":"CLMBARNDLF:1","stop_lat":40.121223,"stop_lon":-88.245083,"stop_name":"Columbia & Randolph"}]},{"stop_id":"CLRCHCH","stop_name":"Coler and Church","code":"MTD5155","points":[{"code":"MTD5155","stop_id":"CLRCHCH:1","stop_lat":40.118345,"stop_lon":-88.215625,"stop_name":"Coler & Church"},{"code":"MTD5155","stop_id":"CLRCHCH:3","stop_lat":40.118288,"stop_lon":-88.215849,"stop_name":"Coler & Church"},{"code":"MTD5155","stop_id":"CLRCHCH:4","stop_lat":40.118406,"stop_lon":-88.215782,"stop_name":"Coler & Church"}]},{"stop_id":"CLRFRVW","stop_name":"Coler and Fairview","code":"MTD3715","points":[{"code":"MTD3715","stop_id":"CLRFRVW:2","stop_lat":40.119995,"stop_lon":-88.215737,"stop_name":"Coler & Fairview"},{"code":"MTD3715","stop_id":"CLRFRVW:3","stop_lat":40.120082,"stop_lon":-88.215917,"stop_name":"Coler & Fairview"}]},{"stop_id":"CLRPK","stop_name":"Coler and Park","code":"MTD4521","points":[{"code":"MTD4521","stop_id":"CLRPK:4","stop_lat":40.117548,"stop_lon":-88.215733,"stop_name":"Coler & Park"}]},{"stop_id":"CLTNBLBLRV","stop_name":"Clayton and Bellerieve","code":"MTD7345","points":[{"code":"MTD7345","stop_id":"CLTNBLBLRV:1","stop_lat":40.121799,"stop_lon":-88.298190,"stop_name":"Clayton and Bellerieve"}]},{"stop_id":"CLTNCLW","stop_name":"Clayton and Clearwater","code":"MTD5190","points":[{"code":"MTD5190","stop_id":"CLTNCLW:2","stop_lat":40.122794,"stop_lon":-88.287511,"stop_name":"Clayton and Bellerieve"},{"code":"MTD5190","stop_id":"CLTNCLW:4","stop_lat":40.122929,"stop_lon":-88.287514,"stop_name":"Clayton and Clearwater"}]},{"stop_id":"CLTNCPT","stop_name":"Clayton and Compton","code":"MTD3799","points":[{"code":"MTD3799","stop_id":"CLTNCPT:1","stop_lat":40.122581,"stop_lon":-88.291084,"stop_name":"Clayton and Compton"},{"code":"MTD3799","stop_id":"CLTNCPT:3","stop_lat":40.122442,"stop_lon":-88.291243,"stop_name":"Clayton and Compton"}]},{"stop_id":"CLTNCRVCR","stop_name":"Clayton and Creve Coeur","code":"MTD0102","points":[{"code":"MTD0102","stop_id":"CLTNCRVCR:1","stop_lat":40.122328,"stop_lon":-88.296236,"stop_name":"Clayton & Creve Coer"},{"code":"MTD0102","stop_id":"CLTNCRVCR:3","stop_lat":40.122198,"stop_lon":-88.296440,"stop_name":"Clayton & Creve Coeur"}]},{"stop_id":"CLTNCSV","stop_name":"Clayton and Crestview","code":"MTD0466","points":[{"code":"MTD0466","stop_id":"CLTNCSV:1","stop_lat":40.122757,"stop_lon":-88.290108,"stop_name":"Clayton and Crestview"},{"code":"MTD0466","stop_id":"CLTNCSV:3","stop_lat":40.122639,"stop_lon":-88.290309,"stop_name":"Clayton and Crestview"}]},{"stop_id":"CLTNCVT","stop_name":"Clayton and Covington","code":"MTD4203","points":[{"code":"MTD4203","stop_id":"CLTNCVT:2","stop_lat":40.123768,"stop_lon":-88.286952,"stop_name":"Clayton and Covington"},{"code":"MTD4203","stop_id":"CLTNCVT:4","stop_lat":40.123898,"stop_lon":-88.287155,"stop_name":"Clayton and Covington"}]},{"stop_id":"CLTNDLMR","stop_name":"Clayton and Delmar","code":"MTD6126","points":[{"code":"MTD6126","stop_id":"CLTNDLMR:1","stop_lat":40.121963,"stop_lon":-88.297090,"stop_name":"Clayton & Delmar"},{"code":"MTD6126","stop_id":"CLTNDLMR:3","stop_lat":40.121852,"stop_lon":-88.297278,"stop_name":"Clayton & Delmar"}]},{"stop_id":"CLTNDNCN","stop_name":"Clayton and Duncan","code":"MTD7097","points":[{"code":"MTD7097","stop_id":"CLTNDNCN:3","stop_lat":40.122355,"stop_lon":-88.295783,"stop_name":"Clayton & Duncan"},{"code":"MTD7097","stop_id":"CLTNDNCN:4","stop_lat":40.122649,"stop_lon":-88.295644,"stop_name":"Clayton & Duncan"}]},{"stop_id":"CLTNHGN","stop_name":"Clayton and Higgins","code":"MTD5561","points":[{"code":"MTD5561","stop_id":"CLTNHGN:2","stop_lat":40.124616,"stop_lon":-88.287005,"stop_name":"Clayton and Higgins"},{"code":"MTD5561","stop_id":"CLTNHGN:4","stop_lat":40.124729,"stop_lon":-88.287170,"stop_name":"Clayton and Higgins"}]},{"stop_id":"CLTNHLT","stop_name":"Clayton and Hilltop","code":"MTD0787","points":[{"code":"MTD0787","stop_id":"CLTNHLT:1","stop_lat":40.122772,"stop_lon":-88.288719,"stop_name":"Clayton and Hilltop"},{"code":"MTD0787","stop_id":"CLTNHLT:3","stop_lat":40.122682,"stop_lon":-88.288882,"stop_name":"Clayton and Hilltop"}]},{"stop_id":"CLTNHTG","stop_name":"Clayton and Heritage","code":"MTD2370","points":[{"code":"MTD2370","stop_id":"CLTNHTG:2","stop_lat":40.125506,"stop_lon":-88.287010,"stop_name":"Clayton and Heritage"},{"code":"MTD2370","stop_id":"CLTNHTG:4","stop_lat":40.125645,"stop_lon":-88.287170,"stop_name":"Clayton and Heritage"}]},{"stop_id":"CLTNHV","stop_name":"Clayton and High View","code":"MTD7570","points":[{"code":"MTD7570","stop_id":"CLTNHV:2","stop_lat":40.126715,"stop_lon":-88.286983,"stop_name":"Clayton and High View"},{"code":"MTD7570","stop_id":"CLTNHV:4","stop_lat":40.126911,"stop_lon":-88.287056,"stop_name":"Clayton and High View"}]},{"stop_id":"CLTNIRVN","stop_name":"Clayton and Irvine","code":"MTD5023","points":[{"code":"MTD5023","stop_id":"CLTNIRVN:1","stop_lat":40.122448,"stop_lon":-88.294725,"stop_name":"Clayton & Irvine"},{"code":"MTD5023","stop_id":"CLTNIRVN:3","stop_lat":40.122357,"stop_lon":-88.294970,"stop_name":"Clayton & Irvine"}]},{"stop_id":"CLTNPMNA","stop_name":"Clayton and Pomona","code":"MTD1625","points":[{"code":"MTD1625","stop_id":"CLTNPMNA:1","stop_lat":40.122276,"stop_lon":-88.293243,"stop_name":"Clayton & Pomona"},{"code":"MTD1625","stop_id":"CLTNPMNA:3","stop_lat":40.122230,"stop_lon":-88.293525,"stop_name":"Clayton & Pomona"},{"code":"MTD1625","stop_id":"CLTNPMNA:4","stop_lat":40.122335,"stop_lon":-88.293375,"stop_name":"Clayton & Pomona"}]},{"stop_id":"CLTNRSM","stop_name":"Clayton and Rossmoor","code":"MTD4526","points":[{"code":"MTD4526","stop_id":"CLTNRSM:1","stop_lat":40.122375,"stop_lon":-88.292091,"stop_name":"Clayton and Rossmoor"},{"code":"MTD4526","stop_id":"CLTNRSM:3","stop_lat":40.122235,"stop_lon":-88.292287,"stop_name":"Clayton and Rossmoor"}]},{"stop_id":"CMBLAZTEC","stop_name":"Campbell and Aztec","code":"MTD7543","points":[{"code":"MTD7543","stop_id":"CMBLAZTEC:2","stop_lat":40.143150,"stop_lon":-88.270255,"stop_name":"Campbell & Aztec"},{"code":"MTD7543","stop_id":"CMBLAZTEC:4","stop_lat":40.143283,"stop_lon":-88.270337,"stop_name":"Campbell & Aztec"}]},{"stop_id":"CMBLCMCHE","stop_name":"Campbell and Comanche","code":"MTD4426","points":[{"code":"MTD4426","stop_id":"CMBLCMCHE:2","stop_lat":40.142618,"stop_lon":-88.269903,"stop_name":"Campbell & Comanche"},{"code":"MTD4426","stop_id":"CMBLCMCHE:4","stop_lat":40.142720,"stop_lon":-88.270107,"stop_name":"Campbell & Comanche"}]},{"stop_id":"CMBLCRT","stop_name":"Campbell and Curt","code":"MTD2516","points":[{"code":"MTD2516","stop_id":"CMBLCRT:2","stop_lat":40.140040,"stop_lon":-88.269545,"stop_name":"Campbell & Curt"},{"code":"MTD2516","stop_id":"CMBLCRT:4","stop_lat":40.140118,"stop_lon":-88.269590,"stop_name":"Campbell & Curt"}]},{"stop_id":"CMBLDBNS","stop_name":"Campbell and Dobbins","code":"MTD4141","points":[{"code":"MTD4141","stop_id":"CMBLDBNS:2","stop_lat":40.141557,"stop_lon":-88.269570,"stop_name":"Campbell & Dobbins"},{"code":"MTD4141","stop_id":"CMBLDBNS:4","stop_lat":40.141663,"stop_lon":-88.269647,"stop_name":"Campbell & Dobbins"}]},{"stop_id":"CMBLQNWAY","stop_name":"Campbell and Queensway","code":"MTD1611","points":[{"code":"MTD1611","stop_id":"CMBLQNWAY:3","stop_lat":40.143930,"stop_lon":-88.270463,"stop_name":"Campbell & Queensway"},{"code":"MTD1611","stop_id":"CMBLQNWAY:8","stop_lat":40.144008,"stop_lon":-88.270637,"stop_name":"Campbell & Queensway"}]},{"stop_id":"CMBLRLND","stop_name":"Campbell and Roland","code":"MTD7634","points":[{"code":"MTD7634","stop_id":"CMBLRLND:2","stop_lat":40.139177,"stop_lon":-88.269523,"stop_name":"Campbell & Roland"},{"code":"MTD7634","stop_id":"CMBLRLND:4","stop_lat":40.139290,"stop_lon":-88.269592,"stop_name":"Campbell & Roland"}]},{"stop_id":"CMIHS","stop_name":"Champaign House","code":"MTD4027","points":[{"code":"MTD4027","stop_id":"CMIHS:1","stop_lat":40.098158,"stop_lon":-88.271052,"stop_name":"Champaign House"}]},{"stop_id":"CNHMOKLN","stop_name":"Cunningham and Oakland","code":"MTD6674","points":[{"code":"MTD6674","stop_id":"CNHMOKLN:2","stop_lat":40.123697,"stop_lon":-88.201075,"stop_name":"Cunningham & Oakland"},{"code":"MTD6674","stop_id":"CNHMOKLN:4","stop_lat":40.123923,"stop_lon":-88.201185,"stop_name":"Cunningham & Oakland"},{"code":"MTD6674","stop_id":"CNHMOKLN:7","stop_lat":40.123452,"stop_lon":-88.201405,"stop_name":"Cunningham & Oakland"}]},{"stop_id":"CNHMPKNS","stop_name":"Cunningham and Perkins","code":"MTD2620","points":[{"code":"MTD2620","stop_id":"CNHMPKNS:2","stop_lat":40.126745,"stop_lon":-88.199630,"stop_name":"Cunningham & Perkins"},{"code":"MTD2620","stop_id":"CNHMPKNS:3","stop_lat":40.127335,"stop_lon":-88.199790,"stop_name":"Cunningham & Perkins"},{"code":"MTD2620","stop_id":"CNHMPKNS:4","stop_lat":40.127605,"stop_lon":-88.199435,"stop_name":"Cunningham & Perkins"},{"code":"MTD2620","stop_id":"CNHMPKNS:8","stop_lat":40.127452,"stop_lon":-88.199975,"stop_name":"Cunningham & Perkins"}]},{"stop_id":"CNHMTPSN","stop_name":"Cunningham and Thompson","code":"MTD5764","points":[{"code":"MTD5764","stop_id":"CNHMTPSN:2","stop_lat":40.125540,"stop_lon":-88.200242,"stop_name":"Cunningham & Thompson"},{"code":"MTD5764","stop_id":"CNHMTPSN:4","stop_lat":40.125707,"stop_lon":-88.200385,"stop_name":"Cunningham & Thompson"}]},{"stop_id":"CNVMKT","stop_name":"Convenience Dr. and Market","code":"MTD1454","points":[{"code":"MTD1454","stop_id":"CNVMKT:4","stop_lat":40.140743,"stop_lon":-88.239068,"stop_name":"Convenience Dr. & Market"}]},{"stop_id":"COLRCH","stop_name":"Colorado and Larch","code":"MTD3442","points":[{"code":"MTD3442","stop_id":"COLRCH:1","stop_lat":40.094750,"stop_lon":-88.196912,"stop_name":"Colorado & Larch"}]},{"stop_id":"CPRRDGBLKHK","stop_name":"Copper Ridge and Blackhawk","code":"MTD5500","points":[{"code":"MTD5500","stop_id":"CPRRDGBLKHK:1","stop_lat":40.085188,"stop_lon":-88.314733,"stop_name":"Copper Ridge & Blackhawk"}]},{"stop_id":"CPRRDGCPR","stop_name":"Copper Ridge and Copper","code":"MTD1224","points":[{"code":"MTD1224","stop_id":"CPRRDGCPR:1","stop_lat":40.084753,"stop_lon":-88.317673,"stop_name":"Copper Ridge & Copper"}]},{"stop_id":"CPRRDGIRNWD","stop_name":"Copper Ridge and Ironwood","code":"MTD3207","points":[{"code":"MTD3207","stop_id":"CPRRDGIRNWD:1","stop_lat":40.084815,"stop_lon":-88.316813,"stop_name":"Copper Ridge & Ironwood"}]},{"stop_id":"CPRRDGMLKN","stop_name":"Copper Ridge and Mullikin","code":"MTD0634","points":[{"code":"MTD0634","stop_id":"CPRRDGMLKN:1","stop_lat":40.084743,"stop_lon":-88.321910,"stop_name":"Copper Ridge & Mullikin"}]},{"stop_id":"CPRRDGSND","stop_name":"Copper Ridge and Sand","code":"MTD2101","points":[{"code":"MTD2101","stop_id":"CPRRDGSND:1","stop_lat":40.085015,"stop_lon":-88.315597,"stop_name":"Copper Ridge & Sand"}]},{"stop_id":"CRNDODVR","stop_name":"Coronado and Dover","code":"MTD6767","points":[{"code":"MTD6767","stop_id":"CRNDODVR:3","stop_lat":40.096248,"stop_lon":-88.253693,"stop_name":"Coronado & Dover"},{"code":"MTD6767","stop_id":"CRNDODVR:8","stop_lat":40.096187,"stop_lon":-88.253943,"stop_name":"Coronado & Dover"}]},{"stop_id":"CRNDOVTRA","stop_name":"Coronado and Ventura","code":"MTD1243","points":[{"code":"MTD1243","stop_id":"CRNDOVTRA:2","stop_lat":40.096730,"stop_lon":-88.253458,"stop_name":"Coronado & Ventura"},{"code":"MTD1243","stop_id":"CRNDOVTRA:4","stop_lat":40.096908,"stop_lon":-88.253527,"stop_name":"Coronado & Ventura"}]},{"stop_id":"CROL","stop_name":"Carroll between Community Center and Kerr","code":"MTD5542","points":[{"code":"MTD5542","stop_id":"CROL:1","stop_lat":40.123507,"stop_lon":-88.194708,"stop_name":"Carroll"}]},{"stop_id":"CROLFD","stop_name":"Carrol Fire Department","code":"MTD7221","points":[{"code":"MTD7221","stop_id":"CROLFD:3","stop_lat":40.130500,"stop_lon":-88.183087,"stop_name":"Carrol Fire Department"}]},{"stop_id":"CROLKER","stop_name":"Carroll and Kerr","code":"MTD7461","points":[{"code":"MTD7461","stop_id":"CROLKER:3","stop_lat":40.122065,"stop_lon":-88.194807,"stop_name":"Carroll & Kerr"},{"code":"MTD7461","stop_id":"CROLKER:4","stop_lat":40.122180,"stop_lon":-88.194677,"stop_name":"Carroll & Kerr"}]},{"stop_id":"CRSGTCHWK","stop_name":"Crossgate and Charwick","code":"MTD7644","points":[{"code":"MTD7644","stop_id":"CRSGTCHWK:3","stop_lat":40.091002,"stop_lon":-88.319463,"stop_name":"Crossgate & Charwick"}]},{"stop_id":"CRSGTCRSGTCT","stop_name":"Crossgate and Crossgate Ct.","code":"MTD1623","points":[{"code":"MTD1623","stop_id":"CRSGTCRSGTCT:3","stop_lat":40.091003,"stop_lon":-88.316065,"stop_name":"Crossgate & Crossgate Ct."}]},{"stop_id":"CRSGTIRNWD","stop_name":"Crossgate and Ironwood Ln","code":"MTD3650","points":[{"code":"MTD3650","stop_id":"CRSGTIRNWD:4","stop_lat":40.089793,"stop_lon":-88.315473,"stop_name":"Crossgate & Ironwood Ln"}]},{"stop_id":"CRSNTGRNDL","stop_name":"Crescent and Greendale","code":"MTD1162","points":[{"code":"MTD1162","stop_id":"CRSNTGRNDL:2","stop_lat":40.100153,"stop_lon":-88.281408,"stop_name":"Crescent & Greendale"},{"code":"MTD1162","stop_id":"CRSNTGRNDL:4","stop_lat":40.100315,"stop_lon":-88.281542,"stop_name":"Crescent & Greendale"}]},{"stop_id":"CRSNTJMS","stop_name":"Crescent at Jefferson Middle School","code":"MTD4272","points":[{"code":"MTD4272","stop_id":"CRSNTJMS:4","stop_lat":40.104118,"stop_lon":-88.281317,"stop_name":"Jefferson Middle School"}]},{"stop_id":"CRSNTJOHN","stop_name":"Crescent and John","code":"MTD1752","points":[{"code":"MTD1752","stop_id":"CRSNTJOHN:1","stop_lat":40.109281,"stop_lon":-88.281174,"stop_name":"Crescent & John"},{"code":"MTD1752","stop_id":"CRSNTJOHN:2","stop_lat":40.109038,"stop_lon":-88.281310,"stop_name":"Crescent & John"},{"code":"MTD1752","stop_id":"CRSNTJOHN:4","stop_lat":40.109363,"stop_lon":-88.281400,"stop_name":"Crescent & John"}]},{"stop_id":"CRSNTLWNDL","stop_name":"Crescent and Lawndale","code":"MTD5565","points":[{"code":"MTD5565","stop_id":"CRSNTLWNDL:2","stop_lat":40.099010,"stop_lon":-88.281640,"stop_name":"Crescent & Lawndale"},{"code":"MTD5565","stop_id":"CRSNTLWNDL:4","stop_lat":40.099190,"stop_lon":-88.281688,"stop_name":"Crescent & Lawndale"}]},{"stop_id":"CRSNTOLA","stop_name":"Crescent and Ola","code":"MTD3422","points":[{"code":"MTD3422","stop_id":"CRSNTOLA:2","stop_lat":40.103147,"stop_lon":-88.281215,"stop_name":"Crescent & Ola"},{"code":"MTD3422","stop_id":"CRSNTOLA:4","stop_lat":40.103273,"stop_lon":-88.281358,"stop_name":"Crescent & Ola"}]},{"stop_id":"CRSNTPKDL","stop_name":"Crescent and Parkdale","code":"MTD2355","points":[{"code":"MTD2355","stop_id":"CRSNTPKDL:2","stop_lat":40.097562,"stop_lon":-88.282007,"stop_name":"Crescent & Parkdale"},{"code":"MTD2355","stop_id":"CRSNTPKDL:4","stop_lat":40.097778,"stop_lon":-88.281918,"stop_name":"Crescent & Parkdale"}]},{"stop_id":"CRSNTRBM","stop_name":"Crescent and Round Barn Manor","code":"MTD3412","points":[{"code":"MTD3412","stop_id":"CRSNTRBM:1","stop_lat":40.110377,"stop_lon":-88.281438,"stop_name":"Round Barn Manor"},{"code":"MTD3412","stop_id":"CRSNTRBM:2","stop_lat":40.110338,"stop_lon":-88.281312,"stop_name":"Round Barn Manor"}]},{"stop_id":"CRSNTRBR","stop_name":"Crescent and Round Barn Road","code":"MTD0513","points":[{"code":"MTD0513","stop_id":"CRSNTRBR:2","stop_lat":40.110920,"stop_lon":-88.281330,"stop_name":"Crescent & Round Barn"},{"code":"MTD0513","stop_id":"CRSNTRBR:3","stop_lat":40.111048,"stop_lon":-88.281512,"stop_name":"Crescent & Round Barn"}]},{"stop_id":"CRSNTROD","stop_name":"Crescent and Rodney","code":"MTD0241","points":[{"code":"MTD0241","stop_id":"CRSNTROD:4","stop_lat":40.097377,"stop_lon":-88.282412,"stop_name":"Crescent & Rodney"}]},{"stop_id":"CRSNTSANG","stop_name":"Crescent and Sangamon","code":"MTD4557","points":[{"code":"MTD4557","stop_id":"CRSNTSANG:2","stop_lat":40.102240,"stop_lon":-88.281435,"stop_name":"Crescent & Sangamon"},{"code":"MTD4557","stop_id":"CRSNTSANG:4","stop_lat":40.102500,"stop_lon":-88.281537,"stop_name":"Crescent & Sangamon"}]},{"stop_id":"CRSNTSWD","stop_name":"Crescent and Southwood","code":"MTD5221","points":[{"code":"MTD5221","stop_id":"CRSNTSWD:2","stop_lat":40.095655,"stop_lon":-88.283208,"stop_name":"Crescent & Southwood"},{"code":"MTD5221","stop_id":"CRSNTSWD:4","stop_lat":40.095890,"stop_lon":-88.283316,"stop_name":"Crescent & Southwood"}]},{"stop_id":"CRSNTWLM","stop_name":"Crescent and William","code":"MTD5451","points":[{"code":"MTD5451","stop_id":"CRSNTWLM:2","stop_lat":40.105990,"stop_lon":-88.281267,"stop_name":"Crescent & William"},{"code":"MTD5451","stop_id":"CRSNTWLM:4","stop_lat":40.106173,"stop_lon":-88.281370,"stop_name":"Crescent & William"}]},{"stop_id":"CRSTWDBRAD","stop_name":"Crestwood and Bradley","code":"MTD4333","points":[{"code":"MTD4333","stop_id":"CRSTWDBRAD:2","stop_lat":40.127552,"stop_lon":-88.300077,"stop_name":"Crestwood & Bradley"},{"code":"MTD4333","stop_id":"CRSTWDBRAD:3","stop_lat":40.127625,"stop_lon":-88.300222,"stop_name":"Crestwood & Bradley"}]},{"stop_id":"CRSTWDCLTN","stop_name":"Crestwood and Clayton","code":"MTD6131","points":[{"code":"MTD6131","stop_id":"CRSTWDCLTN:1","stop_lat":40.122554,"stop_lon":-88.300607,"stop_name":"Crestwood & Clayton"},{"code":"MTD6131","stop_id":"CRSTWDCLTN:4","stop_lat":40.122640,"stop_lon":-88.300792,"stop_name":"Crestwood & Clayton"}]},{"stop_id":"CRSTWDEDHFMN","stop_name":"Crestwood and Edward Hoffman","code":"MTD5367","points":[{"code":"MTD5367","stop_id":"CRSTWDEDHFMN:2","stop_lat":40.126920,"stop_lon":-88.300102,"stop_name":"Crestwood & Edward Hoffman"},{"code":"MTD5367","stop_id":"CRSTWDEDHFMN:4","stop_lat":40.127133,"stop_lon":-88.300220,"stop_name":"Crestwood & Edward Hoffman"}]},{"stop_id":"CRSTWDFLNC","stop_name":"Crestwood and Florence","code":"MTD7464","points":[{"code":"MTD7464","stop_id":"CRSTWDFLNC:2","stop_lat":40.126037,"stop_lon":-88.300460,"stop_name":"Crestwood & Florence"},{"code":"MTD7464","stop_id":"CRSTWDFLNC:4","stop_lat":40.126217,"stop_lon":-88.300485,"stop_name":"Crestwood & Florence"}]},{"stop_id":"CRSTWDKTLYN","stop_name":"Crestwood and Katie Lynn","code":"MTD7322","points":[{"code":"MTD7322","stop_id":"CRSTWDKTLYN:2","stop_lat":40.125171,"stop_lon":-88.300695,"stop_name":"Crestwood & Katie Lynn"},{"code":"MTD7322","stop_id":"CRSTWDKTLYN:4","stop_lat":40.125372,"stop_lon":-88.300778,"stop_name":"Crestwood & Katie Lynn"}]},{"stop_id":"CRSTWDLDU","stop_name":"Crestwood and Ladue","code":"MTD1254","points":[{"code":"MTD1254","stop_id":"CRSTWDLDU:2","stop_lat":40.124385,"stop_lon":-88.300688,"stop_name":"Crestwood & Ladue"},{"code":"MTD1254","stop_id":"CRSTWDLDU:4","stop_lat":40.124565,"stop_lon":-88.300753,"stop_name":"Crestwood & Ladue"}]},{"stop_id":"CRTSWNSTN","stop_name":"Curtis and Wynstone","code":"MTD2530","points":[{"code":"MTD2530","stop_id":"CRTSWNSTN:1","stop_lat":40.069327,"stop_lon":-88.285182,"stop_name":"Curtis & Wynstone"},{"code":"MTD2530","stop_id":"CRTSWNSTN:3","stop_lat":40.069269,"stop_lon":-88.285558,"stop_name":"Curtis & Wynstone"}]},{"stop_id":"CSQRCT","stop_name":"Country Squire Ct.","code":"MTD7011","points":[{"code":"MTD7011","stop_id":"CSQRCT:2","stop_lat":40.102829,"stop_lon":-88.185119,"stop_name":"Country Squire Ct."},{"code":"MTD7011","stop_id":"CSQRCT:4","stop_lat":40.102887,"stop_lon":-88.185323,"stop_name":"Country Squire Ct."}]},{"stop_id":"CSQRKNCH","stop_name":"Country Squire and Kinch","code":"MTD6556","points":[{"code":"MTD6556","stop_id":"CSQRKNCH:2","stop_lat":40.102380,"stop_lon":-88.181335,"stop_name":"Country Squire & Kinch"},{"code":"MTD6556","stop_id":"CSQRKNCH:3","stop_lat":40.102463,"stop_lon":-88.181538,"stop_name":"Country Squire & Kinch"},{"code":"MTD6556","stop_id":"CSQRKNCH:4","stop_lat":40.102580,"stop_lon":-88.181443,"stop_name":"Country Squire & Kinch"},{"code":"MTD6556","stop_id":"CSQRKNCH:8","stop_lat":40.102523,"stop_lon":-88.181747,"stop_name":"Country Squire & Kinch"}]},{"stop_id":"CTGRVBKWD","stop_name":"Cottage Grove and Burkwood","code":"MTD1174","points":[{"code":"MTD1174","stop_id":"CTGRVBKWD:4","stop_lat":40.096933,"stop_lon":-88.195082,"stop_name":"Cottage Grove & Burkwood"}]},{"stop_id":"CTGRVBRITN","stop_name":"Cottage Grove and Brighton","code":"MTD6543","points":[{"code":"MTD6543","stop_id":"CTGRVBRITN:2","stop_lat":40.093085,"stop_lon":-88.195265,"stop_name":"Cottage Grove & Brighton"},{"code":"MTD6543","stop_id":"CTGRVBRITN:4","stop_lat":40.093053,"stop_lon":-88.195412,"stop_name":"Cottage Grove & Brighton"}]},{"stop_id":"CTGRVCA","stop_name":"Cottage Grove and California","code":"MTD6324","points":[{"code":"MTD6324","stop_id":"CTGRVCA:2","stop_lat":40.108593,"stop_lon":-88.195718,"stop_name":"Cottage Grove & California"},{"code":"MTD6324","stop_id":"CTGRVCA:4","stop_lat":40.108663,"stop_lon":-88.195797,"stop_name":"Cottage Grove & California"}]},{"stop_id":"CTGRVCO","stop_name":"Cottage Grove and Colorado","code":"MTD4223","points":[{"code":"MTD4223","stop_id":"CTGRVCO:1","stop_lat":40.094717,"stop_lon":-88.194650,"stop_name":"Cottage Grove & Colorado"},{"code":"MTD4223","stop_id":"CTGRVCO:2","stop_lat":40.094613,"stop_lon":-88.194807,"stop_name":"Cottage Grove & Colorado"},{"code":"MTD4223","stop_id":"CTGRVCO:4","stop_lat":40.094135,"stop_lon":-88.194855,"stop_name":"Cottage Grove & Colorado"}]},